City ID,City,Cloudiness,Country,Date,Humidity,Lat,Lng,Max Temp,Wind Speed
0,Kapaa,75,US,1603048659,94,22.08,-159.32,80.01,13.87
1,Esim,29,GH,1603048501,88,4.87,-2.24,77.43,7.05
2,Antalya Province,40,TR,1603048483,83,36.77,30.72,73.4,3.36
3,Koło,71,PL,1603048728,97,52.2,18.64,46.0,1.01
4,Loreto,0,MX,1603048728,25,22.27,-101.97,76.08,8.23
5,Punta Arenas,75,CL,1603048593,61,-53.15,-70.92,48.2,25.28
6,Carnarvon,90,AU,1603048723,83,-24.87,113.63,69.8,12.75
7,Umluj,0,SA,1603048728,54,25.02,37.27,84.2,6.98
8,Kavieng,83,PG,1603048657,76,-2.57,150.8,82.15,10.67
9,Weihai,0,CN,1603048728,66,37.5,122.11,58.55,6.06
10,Lorengau,100,PG,1603048728,79,-2.02,147.27,81.79,8.34
11,Kavaratti,45,IN,1603048728,80,10.57,72.64,81.1,11.16
12,Torbay,40,CA,1603048596,93,47.67,-52.73,55.4,12.75
13,College,75,US,1603048656,78,64.86,-147.8,12.2,0.96
14,Diffa,0,NE,1603048729,13,13.32,12.61,90.36,7.02
15,Nakamura,100,JP,1603048729,77,32.98,132.93,60.21,2.84
16,Mangan,76,IN,1603048729,50,27.52,88.53,70.39,1.68
17,Chuncheng,46,CN,1603048729,82,22.17,111.79,67.46,5.03
18,Kapiri Mposhi,0,ZM,1603048729,30,-13.97,28.68,71.04,6.73
19,Yulara,40,AU,1603048729,93,-25.24,130.99,66.2,11.41
20,Cockburn Town,40,TC,1603048729,62,21.46,-71.14,87.8,9.17
21,Kapuskasing,90,CA,1603048729,80,49.42,-82.43,35.6,14.99
22,Faanui,9,PF,1603048594,81,-16.48,-151.75,79.09,10.18
23,Flin Flon,75,CA,1603048729,80,54.77,-101.86,30.2,11.41
24,Banjar,75,ID,1603048729,83,-8.19,114.97,80.6,6.93
25,Copperas Cove,1,US,1603048730,45,31.12,-97.9,89.01,19.46
26,Hilo,90,US,1603048657,83,19.73,-155.09,72.0,5.82
27,Ushuaia,40,AR,1603048629,67,-54.8,-68.3,46.4,12.75
28,Knysna,98,ZA,1603048730,93,-34.04,23.05,55.4,5.82
29,Busselton,0,AU,1603048660,54,-33.65,115.33,59.0,8.84
30,Atuona,3,PF,1603048721,78,-9.8,-139.03,77.83,17.85
31,Dubbo,0,AU,1603048498,93,-32.25,148.62,42.8,1.12
32,Georgetown,24,SH,1603048659,75,-7.93,-14.42,74.21,10.74
33,Constitucion,0,MX,1603048730,24,23.99,-104.67,78.8,9.91
34,Fountain,90,US,1603048715,80,38.68,-104.7,35.6,16.11
35,Bonthe,100,SL,1603048730,87,7.53,-12.51,78.98,7.02
36,Antofagasta,90,CL,1603048590,77,-23.65,-70.4,60.8,13.87
37,Hobart,90,AU,1603048658,57,-42.88,147.33,50.0,9.17
38,New Norfolk,90,AU,1603048595,57,-42.78,147.06,50.0,9.17
39,Albany,90,AU,1603048594,87,-35.02,117.89,57.2,6.93
40,Rikitea,100,PF,1603048595,80,-23.12,-134.97,74.97,20.31
41,Makakilo City,75,US,1603048731,78,21.35,-158.09,80.6,5.99
42,Talāja,95,IN,1603048731,80,21.35,72.05,81.77,7.36
43,Arroyo,1,US,1603048731,41,41.39,-78.88,57.2,9.17
44,Long Xuyen,75,VN,1603048731,100,10.38,105.42,77.0,2.24
45,Iquitos,75,PE,1603048731,62,-3.75,-73.25,87.8,4.7
46,Paita,26,PE,1603048731,67,-5.09,-81.11,70.14,18.95
47,Souillac,20,MU,1603048723,78,-20.52,57.52,73.4,6.93
48,Ormara,89,PK,1603048791,28,25.21,64.64,82.58,12.06
49,Nikolskoye,90,RU,1603048659,93,59.7,30.79,37.0,4.47
50,Barrow,40,US,1603048309,79,71.29,-156.79,21.2,13.87
51,Saint George,75,BM,1603048595,74,32.38,-64.68,82.4,16.11
52,Leopold,90,AU,1603048792,100,-38.18,144.47,45.0,5.82
53,Alofi,92,NU,1603048792,94,-19.06,-169.92,77.0,9.17
54,Cairns,28,AU,1603048586,93,-16.92,145.77,66.99,4.36
55,Mount Gambier,90,AU,1603048792,100,-37.83,140.77,48.2,6.93
56,Sobolevo,100,RU,1603048792,84,54.43,31.9,38.1,14.9
57,Adrar,0,DZ,1603048792,16,25.75,-1.0,81.84,9.75
58,Ilulissat,100,GL,1603048792,48,69.22,-51.1,42.8,20.8
59,Robertsport,100,LR,1603048792,87,6.75,-11.37,79.36,9.78
60,Raudeberg,99,NO,1603048792,75,61.99,5.14,41.0,9.17
61,Qaanaaq,93,GL,1603048593,88,77.48,-69.36,32.95,8.59
62,Tasiilaq,51,GL,1603048724,90,65.61,-37.64,32.0,10.29
63,Fairlie,95,GB,1603048792,90,55.76,-4.86,48.99,5.91
64,Dubai,0,AE,1603048611,13,25.26,55.3,84.2,4.7
65,Suntar,0,RU,1603048792,96,62.14,117.63,16.66,4.38
66,Batagay,100,RU,1603048793,96,67.63,134.63,14.88,3.06
67,Khatanga,71,RU,1603048659,86,71.97,102.5,6.89,8.72
68,Hofn,90,IS,1603048721,74,64.25,-15.21,42.87,15.55
69,Lengshuitan,93,CN,1603048793,88,26.41,111.6,56.62,2.86
70,Chui,0,UY,1603048793,56,-33.7,-53.46,77.23,7.83
71,Auki,76,SB,1603048723,81,-8.77,160.7,77.99,3.67
72,Russell,10,NZ,1603048793,97,-35.26,174.12,55.0,6.13
73,Mbengwi,100,CM,1603048793,88,6.02,10.0,65.71,2.01
74,Abū Zabad,0,SD,1603048793,41,12.35,29.25,83.66,8.48
75,Pevek,93,RU,1603048593,94,69.7,170.31,23.5,16.64
76,Vaini,75,TO,1603048593,88,-21.2,-175.2,69.8,10.29
77,Narsaq,81,GL,1603048793,74,60.92,-46.05,37.4,3.36
78,Lompoc,1,US,1603048793,60,34.64,-120.46,73.4,12.75
79,Nova Lima,75,BR,1603048793,60,-19.99,-43.85,73.4,13.87
80,Severo-Kuril'sk,5,RU,1603048793,81,50.68,156.12,45.52,11.86
81,Kīhei,40,US,1603048794,69,20.79,-156.47,80.6,3.36
82,Mayo,75,CA,1603048656,72,63.59,-135.9,10.4,4.7
83,Vrangel',0,RU,1603048794,57,42.73,133.08,47.12,7.49
84,Muisne,90,EC,1603048794,88,0.6,-80.03,78.8,10.29
85,Almaznyy,100,RU,1603048794,87,48.04,40.05,60.8,6.71
86,Luang Prabang,100,LA,1603048794,84,19.89,102.13,67.35,2.13
87,Saskylakh,100,RU,1603048785,97,71.92,114.08,20.7,6.02
88,Nanortalik,85,GL,1603048723,95,60.14,-45.24,39.38,7.9
89,Avarua,95,CK,1603048724,73,-21.21,-159.78,77.0,6.93
90,Ketchikan,90,US,1603048794,81,55.34,-131.65,46.4,5.06
91,Butaritari,99,KI,1603048656,72,3.07,172.79,81.82,17.9
92,Bluff,100,NZ,1603048316,94,-46.6,168.33,46.99,4.79
93,Henties Bay,0,NA,1603048795,89,-22.12,14.28,60.01,5.01
94,Port Alfred,65,ZA,1603048657,80,-33.59,26.89,62.22,6.85
95,Honningsvåg,75,NO,1603048795,71,70.98,25.97,37.4,4.7
96,Arraial do Cabo,40,BR,1603048605,69,-22.97,-42.03,77.0,17.22
97,Cidreira,9,BR,1603048708,75,-30.18,-50.21,70.68,18.86
98,Zadonsk,90,RU,1603048855,70,52.39,38.93,44.6,17.9
99,Hirara,59,JP,1603048724,79,24.8,125.28,77.72,21.74
100,Galich,100,RU,1603048855,93,58.38,42.35,42.3,10.04
101,Kaitangata,98,NZ,1603048657,90,-46.28,169.85,50.0,1.77
102,Hermanus,100,ZA,1603048303,81,-34.42,19.23,61.0,4.99
103,Isangel,2,VU,1603048786,71,-19.55,169.27,71.76,5.79
104,Prince Rupert,90,CA,1603048686,75,54.32,-130.32,46.4,3.36
105,Port Hedland,0,AU,1603048305,83,-20.32,118.57,71.6,10.29
106,Seoul,1,KR,1603048855,100,37.57,126.98,50.0,1.74
107,Longyearbyen,20,SJ,1603048787,79,78.22,15.64,24.8,9.17
108,Saldanha,100,ZA,1603048849,72,-33.01,17.94,60.8,9.17
109,Nantucket,1,US,1603048741,51,41.28,-70.1,60.8,12.75
110,Kununurra,74,AU,1603048853,88,-15.77,128.73,80.6,4.7
111,Tazovsky,97,RU,1603048856,95,67.47,78.7,21.15,13.06
112,Tuktoyaktuk,20,CA,1603048788,92,69.45,-133.04,14.0,3.36
113,Leningradskiy,0,RU,1603048302,87,69.38,178.42,22.28,6.6
114,Kiama,97,AU,1603048856,93,-34.68,150.87,59.0,10.51
115,Dera Bugti,0,PK,1603048856,18,29.03,69.15,71.51,2.91
116,Bolivar,100,US,1603048782,96,37.61,-93.41,50.0,7.0
117,Belmonte,75,BR,1603048856,73,-15.86,-38.88,77.0,5.82
118,Hithadhoo,100,MV,1603048617,77,-0.6,73.08,83.44,15.66
119,Lagoa,97,PT,1603048856,65,39.05,-27.98,62.67,16.84
120,Homer,90,US,1603048857,93,59.64,-151.55,39.99,2.44
121,Flinders,99,AU,1603048857,83,-34.58,150.86,59.0,3.0
122,Grand Gaube,0,MU,1603048857,73,-20.01,57.66,72.0,1.99
123,Komsomol'skiy,0,RU,1603048595,93,43.98,46.7,57.72,4.79
124,Natitingou,20,BJ,1603048857,74,10.3,1.38,80.6,3.36
125,Provideniya,80,RU,1603048658,91,64.38,-173.3,33.75,4.83
126,Arrondissement de Rambouillet,64,FR,1603048857,81,48.58,1.92,48.0,1.36
127,Micheweni,0,TZ,1603048857,75,-4.97,39.83,78.1,9.06
128,Kutum,0,SD,1603048857,17,14.2,24.67,80.31,10.33
129,Saint-Philippe,7,RE,1603048857,68,-21.36,55.77,71.6,4.7
130,Pauini,100,BR,1603048857,86,-7.71,-66.98,76.96,3.67
131,Jamestown,100,SH,1603048593,95,-15.94,-5.72,61.43,16.28
132,Simao,87,CN,1603048858,88,22.79,100.97,59.68,2.3
133,Yellowknife,90,CA,1603048459,92,62.46,-114.35,28.0,8.05
134,Havøysund,75,NO,1603048858,73,71.0,24.66,35.6,3.36
135,Sucúa,75,EC,1603048858,73,-2.47,-78.17,71.6,3.36
136,Bredasdorp,100,ZA,1603048786,77,-34.53,20.04,60.8,2.24
137,Mahébourg,20,MU,1603048614,78,-20.41,57.7,73.4,6.93
138,Cape Town,40,ZA,1603048523,77,-33.93,18.42,62.01,14.99
139,Kamenka,93,RU,1603048858,74,51.32,42.77,51.01,8.88
140,Funtua,0,NG,1603048858,41,11.52,7.31,77.94,4.21
141,Ennis,75,IE,1603048858,93,52.84,-8.99,54.0,8.05
142,Murray Bridge,0,AU,1603048858,97,-35.12,139.27,44.01,2.59
143,São Desidério,61,BR,1603048859,33,-12.36,-44.97,89.08,2.82
144,Weiser,1,US,1603048859,32,44.25,-116.97,66.2,2.3
145,Esperance,100,AU,1603048851,87,-33.87,121.9,55.4,10.29
146,Lebu,0,CL,1603048594,64,-37.62,-73.65,55.6,8.39
147,Odienné,100,CI,1603048919,86,9.51,-7.57,75.96,3.47
148,Caravelas,50,BR,1603048914,72,-17.71,-39.25,76.26,10.25
149,Aksarka,0,RU,1603048919,96,66.56,67.8,20.98,9.06
150,Ostrovnoy,65,RU,1603048660,87,68.05,39.51,34.45,13.42
151,Tiksi,100,RU,1603048659,96,71.69,128.87,18.41,16.6
152,Bandarbeyla,0,SO,1603048919,79,9.49,50.81,79.77,2.55
153,Hualmay,10,PE,1603048920,66,-11.1,-77.61,67.95,9.71
154,Port Macquarie,100,AU,1603048920,99,-31.43,152.92,60.01,1.01
155,Namatanai,0,PG,1603048920,75,-3.67,152.43,79.56,5.28
156,Havre-St-Pierre,1,CA,1603048690,68,50.23,-63.6,46.4,10.29
157,Bara Uchāna,11,IN,1603048920,23,29.47,76.17,71.89,2.66
158,Erzin,78,RU,1603048920,79,50.26,95.16,32.4,3.2
159,Fortuna,20,US,1603048920,63,40.6,-124.16,62.6,13.87
160,San Cristobal,75,EC,1603048787,78,-0.9,-89.62,77.0,11.41
161,Point Fortin,0,TT,1603048920,62,10.18,-61.68,91.0,1.99
162,Paamiut,49,GL,1603048920,87,61.99,-49.67,42.4,34.92
163,Senftenberg,100,DE,1603048921,87,51.52,14.02,48.0,1.01
164,Boende,99,CD,1603048921,92,-0.22,20.87,73.54,0.83
165,Broken Hill,0,AU,1603048917,76,-31.95,141.43,48.2,9.17
166,Meulaboh,100,ID,1603048723,83,4.14,96.13,76.55,3.87
167,Husavik,90,IS,1603048658,75,66.04,-17.34,42.8,17.22
168,São Filipe,0,CV,1603048659,79,14.9,-24.5,80.73,5.32
169,Naghadeh,0,IR,1603048921,36,36.96,45.39,56.41,2.66
170,Ürümqi,88,CN,1603048852,34,43.8,87.6,51.8,8.95
171,Inzhavino,0,RU,1603048921,70,52.32,42.49,47.07,11.05
172,Poronaysk,0,RU,1603048921,78,49.22,143.12,34.93,11.43
173,Dikson,99,RU,1603048851,89,73.51,80.55,27.16,29.97
174,Puerto del Rosario,20,ES,1603048921,68,28.5,-13.86,69.8,8.05
175,Ribeira Grande,40,PT,1603048658,59,38.52,-28.7,64.4,13.87
176,Leshan,100,CN,1603048922,85,29.56,103.76,59.68,1.97
177,Hauterive,1,CA,1603048922,81,49.18,-68.27,44.6,6.93
178,Bambous Virieux,20,MU,1603048850,78,-20.34,57.76,73.4,6.93
179,Buala,50,SB,1603048922,77,-8.14,159.59,80.13,3.89
180,Baní,40,DO,1603048922,62,18.28,-70.33,89.6,9.17
181,Saint Paul Harbor,90,US,1603048658,81,57.79,-152.41,42.8,5.82
182,Sūsangerd,0,IR,1603048922,37,31.56,48.18,69.8,2.24
183,Ocós,75,GT,1603048922,66,14.51,-92.19,91.4,6.93
184,Chapais,90,CA,1603048922,75,49.78,-74.85,46.4,24.16
185,Mehamn,62,NO,1603048922,92,71.04,27.85,26.6,6.93
186,Vila Franca do Campo,20,PT,1603048922,59,37.72,-25.43,60.8,6.93
187,Puerto Ayora,40,EC,1603048656,73,-0.74,-90.35,77.0,17.22
188,Port Hardy,90,CA,1603048922,93,50.7,-127.42,48.2,5.82
189,Upernavik,4,GL,1603048722,92,72.79,-56.15,32.47,10.16
190,Guane,20,CU,1603048923,72,22.2,-84.09,84.94,7.65
191,San Marcos,40,MX,1603048923,79,16.8,-99.35,86.0,8.05
192,Katobu,57,ID,1603048786,82,-4.94,122.53,73.71,2.35
193,Hirado,100,JP,1603048923,45,33.36,129.55,64.99,5.01
194,Shakawe,0,BW,1603048923,17,-18.37,21.85,75.31,4.07
195,Neiafu,75,TO,1603048923,94,-18.65,-173.98,73.4,5.82
196,Shimoda,80,JP,1603048923,75,34.67,138.95,55.0,10.6
197,Balclutha,97,NZ,1603048983,98,-46.23,169.75,44.56,1.99
198,Riyadh,0,SA,1603048791,23,24.69,46.72,73.4,6.82
199,Bereket,0,TM,1603048983,29,39.24,55.52,61.18,11.92
200,Fryšták,56,CZ,1603048983,93,49.29,17.68,45.0,4.09
201,Farafangana,92,MG,1603048983,82,-22.82,47.83,70.41,9.15
202,Drayton Valley,0,CA,1603048983,68,53.22,-114.99,19.0,3.0
203,Cayenne,22,GF,1603048984,55,4.93,-52.33,89.6,11.41
204,Sur,0,OM,1603048853,26,22.57,59.53,84.92,12.08
205,Voh,0,NC,1603048984,83,-20.97,164.7,65.77,5.75
206,Koch Bihār,1,IN,1603048984,78,26.32,89.43,77.77,2.73
207,Nago,1,JP,1603048984,88,26.59,127.98,75.0,6.93
208,Kruisfontein,1,ZA,1603048980,82,-34.0,24.73,55.99,3.2
209,Kiunga,100,PG,1603048984,99,-6.12,141.29,73.29,0.98
210,Tsabong,0,BW,1603048984,15,-26.02,22.4,83.07,3.06
211,Erdenet,66,MN,1603048984,75,49.03,104.08,33.67,4.32
212,Springville,40,US,1603048835,36,40.17,-111.61,70.0,4.7
213,Kannur,49,IN,1603048984,90,11.87,75.36,76.24,3.42
214,Carbonia,20,IT,1603048984,87,39.17,8.52,60.8,1.12
215,Numazu,0,JP,1603048985,75,35.1,138.87,55.0,3.98
216,Vangaindrano,93,MG,1603048985,85,-23.35,47.6,68.92,5.39
217,Mangai,40,CD,1603048985,94,-4.05,19.53,72.46,1.72
218,Lethem,87,GY,1603048785,34,3.38,-59.8,96.24,2.73
219,Podporozh'ye,100,RU,1603048985,96,60.91,34.17,32.81,5.1
220,Ponta do Sol,75,CV,1603048981,70,17.2,-25.09,84.2,10.29
221,Porto Walter,100,BR,1603048985,50,-8.27,-72.74,89.01,5.37
222,Port Said,20,EG,1603048985,74,31.26,32.28,78.8,13.87
223,Belokurikha,0,RU,1603048985,88,52.0,84.99,32.88,7.87
224,Chokurdakh,89,RU,1603048849,98,70.63,147.92,19.24,6.35
225,Victoria,20,SC,1603048720,74,-4.62,55.45,80.6,5.82
226,Vardø,20,NO,1603048986,60,70.37,31.11,39.2,28.86
227,Virginia Beach,62,US,1603048771,66,36.85,-75.98,71.01,3.0
228,Maragogi,100,BR,1603048986,72,-9.01,-35.22,77.97,11.48
229,Sirte,100,LY,1603048986,72,31.21,16.59,72.0,16.02
230,Kumul,100,CN,1603048980,43,42.8,93.45,48.15,3.51
231,Kichera,100,RU,1603048986,81,55.94,110.1,39.02,3.15
232,Sokoni,20,TZ,1603048986,78,-6.43,39.55,78.8,5.82
233,Taoudenni,0,ML,1603048491,15,22.68,-3.98,87.96,10.2
234,Tautira,40,PF,1603048986,70,-17.73,-149.15,84.2,14.99
235,Lichinga,0,MZ,1603048986,49,-13.31,35.24,71.01,6.93
236,Poum,0,NC,1603048979,76,-20.23,164.02,73.27,18.1
237,Tuatapere,100,NZ,1603048657,94,-46.13,167.68,46.99,1.99
238,East London,71,ZA,1603048593,77,-33.02,27.91,60.8,5.82
239,Tucuruí,87,BR,1603048987,43,-3.77,-49.67,93.4,4.12
240,San Pedro,97,BO,1603048987,65,-16.24,-68.85,48.47,19.17
241,Muros,97,ES,1603048987,83,42.78,-9.06,60.01,4.88
242,Frontignan,0,FR,1603048987,71,43.45,3.75,52.0,4.7
243,Romitan,0,UZ,1603048987,32,39.93,64.38,55.4,6.93
244,Lufilufi,40,WS,1603049047,79,-13.87,-171.6,84.2,3.38
245,San Patricio,75,MX,1603048849,75,19.22,-104.7,89.6,11.41
246,Samarai,42,PG,1603049044,88,-10.62,150.67,78.98,6.31
247,Kahului,40,US,1603048724,69,20.89,-156.47,80.6,3.36
248,Semey,0,KZ,1603049047,76,50.41,80.23,35.64,7.31
249,Castro,75,CL,1603048656,87,-42.47,-73.77,51.01,13.87
250,Tubualá,75,PA,1603049047,88,9.52,-79.03,78.8,8.05
251,Angarsk,99,RU,1603049048,78,52.54,103.89,32.0,4.47
252,Wabana,90,CA,1603049048,93,47.63,-52.95,55.0,9.17
253,Edd,0,ER,1603049048,65,13.93,41.69,84.43,1.74
254,Lázaro Cárdenas,44,MX,1603049048,69,17.96,-102.2,86.68,7.31
255,Acaraú,88,BR,1603048759,59,-2.89,-40.12,84.02,20.54
256,Novy Urengoy,92,RU,1603049048,97,66.08,76.63,24.35,13.42
257,Alyangula,18,AU,1603049048,100,-13.85,136.42,69.8,3.36
258,Bethel,87,US,1603048545,61,41.37,-73.41,60.01,1.01
259,Rocha,7,UY,1603048706,69,-34.48,-54.33,81.16,9.91
260,Bintulu,40,MY,1603049048,100,3.17,113.03,78.01,4.7
261,Vaitape,11,PF,1603049048,80,-16.52,-151.75,79.9,10.49
262,Klaksvík,100,FO,1603048917,93,62.23,-6.59,39.2,4.7
263,Verkhnevilyuysk,1,RU,1603049049,95,63.45,120.32,11.52,1.61
264,Xiangxiang,32,CN,1603049049,84,27.73,112.53,52.29,2.8
265,Zaykovo,100,RU,1603049049,82,57.56,62.76,36.07,9.15
266,Sept-Îles,75,CA,1603048826,87,50.2,-66.38,45.0,6.93
267,Pisco,90,PE,1603049049,77,-13.7,-76.22,66.99,8.05
268,Loa Janan,97,ID,1603049049,97,-0.58,117.09,73.99,0.54
269,Dossor,0,KZ,1603049049,28,47.53,52.98,61.02,12.39
270,Senec,3,SK,1603049049,76,48.22,17.4,50.0,6.93
271,Soro,58,IN,1603049050,81,21.29,86.69,79.14,1.1
272,Port Elizabeth,0,ZA,1603048594,87,-33.92,25.57,59.0,9.17
273,Katherine,40,AU,1603048916,65,-14.47,132.27,82.4,8.05
274,Gravdal,41,NO,1603049050,86,68.12,13.5,33.8,2.24
275,Baykit,100,RU,1603049050,93,61.67,96.37,28.02,10.78
276,Mar del Plata,40,AR,1603048593,69,-38.0,-57.56,78.8,8.05
277,Pacific Grove,1,US,1603048570,55,36.62,-121.92,66.99,4.7
278,Timizart,0,DZ,1603049050,78,36.8,4.27,57.6,3.51
279,Cherëmukhovo,100,RU,1603049050,99,60.35,59.99,29.84,6.29
280,Zhangaözen,0,KZ,1603049045,28,43.3,52.8,60.64,17.13
281,Sri Aman,95,MY,1603048915,94,1.24,111.46,73.4,1.12
282,Padang,99,ID,1603048853,77,-0.95,100.35,78.26,3.51
283,Baringo,96,KE,1603049050,64,0.47,35.97,75.36,6.4
284,Methóni,0,GR,1603049051,72,36.82,21.7,66.0,5.82
285,Yerbogachën,100,RU,1603049051,95,61.28,108.01,34.97,6.78
286,Tateyama,20,JP,1603049051,82,34.98,139.87,57.2,12.75
287,Te Anau,100,NZ,1603048593,92,-45.42,167.72,44.08,1.32
288,Shestakovo,100,RU,1603049051,87,56.49,103.96,44.35,8.75
289,Tezu,0,IN,1603049051,70,27.92,96.17,73.81,3.53
290,San Policarpo,100,PH,1603049051,83,12.18,125.51,81.68,12.17
291,Nānākuli,75,US,1603049051,66,21.39,-158.15,84.2,5.82
292,Kungurtug,100,RU,1603049046,83,50.6,97.52,31.15,1.32
293,Bengkulu,100,ID,1603049051,91,-3.8,102.27,75.7,6.76
294,Northam,0,AU,1603049052,72,-31.67,116.67,59.0,3.36
295,Charagua,74,BO,1603049112,20,-19.8,-63.22,98.92,8.5
296,Thompson,75,CA,1603048785,86,55.74,-97.86,30.2,6.93
297,Tānsen,87,NP,1603049112,100,27.87,83.55,61.47,2.06
298,Talnakh,90,RU,1603049112,92,69.49,88.4,15.8,8.95
299,Dolinsk,20,RU,1603049112,92,47.35,142.8,28.4,2.24
300,San Andrés,75,CO,1603049112,70,12.58,-81.7,87.8,8.05
301,Lüderitz,0,NA,1603049109,48,-26.65,15.16,66.34,20.24
302,Naze,90,JP,1603048850,94,28.37,129.48,75.2,19.46
303,Mbini,40,GQ,1603049112,94,1.57,9.61,80.6,4.7
304,Akureyri,90,IS,1603049112,75,65.68,-18.09,42.8,17.22
305,Iqaluit,90,CA,1603048723,98,63.75,-68.51,32.0,23.04
306,Puerto Colombia,40,CO,1603049113,74,10.99,-74.95,87.8,8.05
307,Christchurch,100,NZ,1603049035,100,-43.53,172.63,55.99,3.36
308,Zduńska Wola,96,PL,1603049089,88,51.6,18.94,46.0,5.99
309,Nacala,0,MZ,1603049113,83,-14.54,40.67,72.93,4.65
310,Martapura,90,ID,1603049113,100,-3.42,114.85,75.2,5.82
311,Jiangyou,100,CN,1603049113,83,31.77,104.72,58.28,2.17
312,Okha,76,RU,1603049113,88,53.57,142.95,35.04,19.33
313,Farrukhnagar,75,IN,1603049113,88,17.08,78.2,77.0,4.7
314,Severomuysk,99,RU,1603049113,99,56.15,113.43,25.2,3.76
315,Châtellerault,17,FR,1603049113,71,46.8,0.53,50.0,4.7
316,Santa Fe,40,CU,1603049113,79,23.13,-82.26,84.2,16.11
317,Anloga,40,GH,1603048914,83,5.79,0.9,80.6,8.05
318,Cabo San Lucas,5,MX,1603049113,66,22.89,-109.91,90.0,5.82
319,Novikovo,0,RU,1603049114,71,51.15,37.89,43.77,10.38
320,Nuristan,0,AF,1603049114,83,35.3,70.83,28.85,10.07
321,Nioki,98,CD,1603049114,92,-2.72,17.68,72.45,3.06
322,Nanchang,99,CN,1603049114,85,28.68,115.88,59.36,5.41
323,Santa Rosa,0,AR,1603049114,26,-36.62,-64.28,83.32,15.28
324,Laguna,100,BR,1603049114,75,-28.48,-48.78,70.81,20.56
325,Wanaraja,100,ID,1603049114,92,-7.17,107.98,69.4,2.95
326,North Bend,90,US,1603049114,67,43.41,-124.22,69.01,5.21
327,Ndélé,66,CF,1603049114,78,8.41,20.65,74.62,0.83
328,Seaford,40,US,1603049114,55,40.67,-73.49,64.0,16.11
329,San Fernando del Valle de Catamarca,0,AR,1603049114,28,-28.47,-65.79,100.99,8.99
330,Bilibino,93,RU,1603049114,94,68.05,166.44,15.48,2.48
331,Berlevåg,20,NO,1603049114,92,70.86,29.09,26.6,2.24
332,Durango,1,US,1603049103,13,37.28,-107.88,73.0,16.11
333,Lensk,100,RU,1603049115,95,60.73,114.93,19.51,3.83
334,Viedma,0,AR,1603049115,19,-40.81,-63.0,78.01,1.99
335,Cherskiy,72,RU,1603048656,91,68.75,161.3,18.73,7.36
336,Strelka,100,RU,1603049115,92,58.07,93.03,31.41,13.15
337,Keti Bandar,0,PK,1603049047,71,24.14,67.45,85.33,6.22
338,Doba,72,TD,1603049115,65,8.65,16.85,77.59,1.81
339,Houma,40,US,1603049115,62,29.6,-90.72,84.2,10.29
340,Twin Falls,1,US,1603048920,27,42.35,-114.64,64.4,17.22
341,Bubaque,0,GW,1603048914,83,11.28,-15.83,83.05,12.39
342,Petropavlovsk-Kamchatskiy,75,RU,1603049115,100,53.05,158.65,37.4,2.24
343,Necochea,38,AR,1603049115,57,-38.55,-58.74,71.01,3.0
344,Svetlaya,100,RU,1603049115,68,46.54,138.33,38.64,5.28
345,Narón,91,ES,1603049115,77,43.52,-8.15,64.99,2.24
346,Tahe,24,CN,1603049115,92,52.33,124.73,23.9,2.04
347,Jega,2,NG,1603049115,34,12.22,4.38,88.65,5.95
348,São Geraldo do Araguaia,49,BR,1603049116,22,-6.4,-48.55,101.1,5.84
349,Pombas,75,CV,1603049176,70,17.15,-25.02,84.2,10.29
350,Ahipara,26,NZ,1603048981,89,-35.17,173.17,58.37,7.4
351,Tessalit,0,ML,1603049173,13,20.2,1.01,88.12,11.95
352,Rancho Palos Verdes,20,US,1603048917,83,33.74,-118.39,75.0,4.7
353,Emerald,0,AU,1603049176,82,-23.53,148.17,64.4,6.93
354,Hasaki,20,JP,1603048293,87,35.73,140.83,51.8,4.7
355,Norman Wells,20,CA,1603048787,78,65.28,-126.83,15.8,6.93
356,Partenit,98,UA,1603049176,59,44.58,34.34,63.25,5.64
357,Tsukumiura,100,JP,1603049176,85,33.07,131.86,52.0,4.56
358,Half Moon Bay,5,US,1603048610,49,37.46,-122.43,78.01,4.7
359,Tommot,0,RU,1603049176,91,58.96,126.29,10.29,2.13
360,Gamba,96,GA,1603048786,90,-2.65,10.0,77.05,8.39
361,Emirdağ,100,TR,1603049177,62,39.02,31.15,63.37,4.18
362,Finschhafen,88,PG,1603049177,76,-6.6,147.87,79.18,5.66
363,Oodweyne,0,SO,1603049110,34,9.41,45.06,76.84,12.84
364,Yar-Sale,39,RU,1603048784,96,66.83,70.83,20.53,9.4
365,Praia da Vitória,20,PT,1603049177,82,38.73,-27.07,60.01,15.77
366,Sydney,75,AU,1603048962,93,-33.87,151.21,60.01,11.41
367,Amapá,100,BR,1603049177,43,1.0,-52.0,90.72,2.89
368,Geraldton,0,AU,1603048329,87,-28.77,114.6,55.4,11.92
369,Ballina,100,IE,1603049177,85,54.12,-9.17,53.01,5.99
370,Ust'-Ishim,39,RU,1603048785,96,57.69,71.17,30.2,6.06
371,Nemuro,0,JP,1603048787,74,43.32,145.57,54.18,14.18
372,Fort Nelson,5,CA,1603048917,72,58.81,-122.7,17.6,4.79
373,Kokopo,16,PG,1603049177,87,-4.35,152.26,76.78,3.91
374,Taltal,24,CL,1603049178,58,-25.4,-70.48,64.15,5.77
375,Kupang,26,ID,1603049178,74,-10.17,123.58,78.15,4.38
376,Damoh,0,IN,1603049178,68,23.83,79.45,75.96,1.59
377,Ilhéus,10,BR,1603048912,71,-14.79,-39.05,78.03,10.11
378,Khasan,0,RU,1603049178,56,42.43,130.64,46.67,9.24
379,San Pedro Town,40,BZ,1603049178,94,17.92,-87.97,87.01,6.93
380,Mkushi,53,ZM,1603049178,37,-13.62,29.39,70.43,5.17
381,Pangnirtung,90,CA,1603048978,75,66.15,-65.71,42.8,21.92
382,Zhigansk,77,RU,1603049178,94,66.77,123.37,10.71,5.41
383,Beisfjord,13,NO,1603049178,86,68.38,17.6,26.6,8.05
384,Khanbari,27,NP,1603049178,65,27.37,87.2,68.09,1.32
385,Sitia,100,GR,1603049178,75,35.2,26.1,73.99,7.0
386,Sioux City,1,US,1603048949,41,42.5,-96.4,41.0,13.87
387,Stromness,100,GB,1603049179,81,58.97,-3.3,42.8,5.82
388,Puerto Madero,75,MX,1603049179,66,14.72,-92.42,89.6,6.93
389,Nueve de Julio,0,AR,1603049179,39,-35.44,-60.88,98.01,5.01
390,Duitama,99,CO,1603049179,69,5.82,-73.03,63.5,3.62
391,Pīshvā,0,IR,1603049179,21,35.31,51.73,60.01,4.7
392,Portland,33,AU,1603048978,88,-38.33,141.6,48.49,3.83
393,Moerai,68,PF,1603049179,76,-22.43,-151.33,75.6,12.24
394,Progreso,75,MX,1603049179,70,21.28,-89.67,87.01,11.41
395,Elizabeth City,1,US,1603048983,64,36.29,-76.25,73.4,10.29
396,Gatehouse of Fleet,98,GB,1603049179,90,54.88,-4.18,48.0,10.18
397,Zaranj,0,AF,1603049239,22,30.97,61.88,64.4,18.34
398,Marabu,40,MY,1603049240,100,4.41,114.01,77.0,2.24
399,Boden,90,SE,1603049240,100,65.83,21.69,30.2,14.99
400,Conde,20,BR,1603049240,65,-7.26,-34.91,82.4,16.11
401,Luanda,75,AO,1603049001,83,-8.84,13.23,77.0,6.93
402,Çumra,40,TR,1603049240,71,37.57,32.77,57.2,18.34
403,Kinwat,50,IN,1603049240,88,19.63,78.2,76.17,1.43
404,Mthatha,87,ZA,1603049240,62,-31.59,28.78,59.0,5.82
405,Bathsheba,40,BB,1603048979,70,13.22,-59.52,84.2,6.93
406,Dunedin,100,NZ,1603049108,89,-45.87,170.5,50.0,2.08
407,Beringovskiy,0,RU,1603049238,87,63.05,179.32,33.87,4.9
408,Gorontalo,100,ID,1603049108,85,0.54,123.06,74.79,1.34
409,Ivanava,100,BY,1603049240,83,52.15,25.54,45.7,14.41
410,Eskil,65,TR,1603049240,39,38.4,33.41,66.78,9.91
411,Martinsville,1,US,1603049055,42,36.69,-79.87,64.4,5.82
412,Cangzhou,0,CN,1603049241,44,38.32,116.87,54.09,6.04
413,Jinhua,100,CN,1603049241,71,29.11,119.65,62.01,1.48
414,Santiago del Estero,0,AR,1603049241,19,-27.8,-64.26,105.69,17.16
415,Mossamedes,28,AO,1603048978,75,-15.2,12.15,69.48,6.73
416,Okulovka,100,RU,1603049241,96,58.4,33.29,36.14,8.84
417,Nucşoara,77,RO,1603049241,75,45.33,24.78,39.11,6.46
418,Majene,100,ID,1603049241,77,-3.54,118.97,78.75,4.99
419,Aquiraz,99,BR,1603049241,66,-3.9,-38.39,84.2,14.99
420,Touros,40,BR,1603049241,65,-5.2,-35.46,82.4,16.11
421,Sangar,97,RU,1603049241,96,63.92,127.47,14.77,6.2
422,Richards Bay,94,ZA,1603048914,82,-28.78,32.04,73.2,14.41
423,Mayor Pablo Lagerenza,36,PY,1603049242,28,-19.93,-60.77,100.58,11.27
424,Trairi,100,BR,1603049242,61,-3.28,-39.27,83.43,15.23
425,Mana,0,GF,1603049242,64,5.66,-53.78,86.45,10.25
426,Alexandria,0,EG,1603049113,78,31.22,29.96,75.2,8.05
427,Andenes,75,NO,1603049242,74,69.31,16.12,37.4,11.41
428,Bone,0,ID,1603049242,92,-9.83,124.45,65.43,0.94
429,Albanel,90,CA,1603049242,46,48.88,-72.45,53.6,11.41
430,Hutchinson,90,US,1603049242,49,38.06,-97.93,46.4,16.11
431,Chumikan,29,RU,1603049242,85,54.72,135.31,27.36,17.83
432,Guerrero Negro,97,MX,1603048608,42,27.98,-114.06,83.73,8.95
433,Constitución,0,CL,1603049242,56,-35.33,-72.42,59.14,17.58
434,Korla,0,CN,1603049242,86,41.76,86.15,48.99,5.99
435,Nova Esperanca,39,BR,1603049243,45,4.44,-61.12,87.01,5.48
436,Ulaangom,100,MN,1603049243,86,49.98,92.07,34.83,0.89
437,Buchanan,75,LR,1603049243,83,5.88,-10.05,80.6,6.69
438,Bud,40,NO,1603048916,93,62.91,6.91,35.6,4.7
439,George,100,ZA,1603049243,93,-33.96,22.46,55.4,5.82
440,Teahupoo,40,PF,1603049243,70,-17.83,-149.27,84.2,14.99
441,Kalangala,20,UG,1603049243,88,-0.31,32.23,69.8,9.17
442,Terney,100,RU,1603049243,71,45.05,136.61,40.66,5.12
443,Palmer,75,US,1603048657,33,42.16,-72.33,63.0,8.05
444,Katsuura,20,JP,1603048918,76,35.13,140.3,57.2,12.75
445,Landen,100,BE,1603049303,93,50.75,5.08,51.01,3.36
446,Kant,0,KG,1603049298,46,42.89,74.85,50.0,4.47
447,Wanning,100,CN,1603049303,87,18.8,110.4,77.47,19.93
448,Oddur,90,SO,1603049304,73,4.12,43.89,76.46,11.34
449,Baie-Comeau,1,CA,1603049304,81,49.22,-68.15,44.6,6.93
450,Coyhaique,90,CL,1603049304,75,-45.58,-72.07,44.6,3.36
451,Chaozhou,35,CN,1603049304,78,23.67,116.64,71.6,6.71
452,Kendal,100,GB,1603049304,90,54.33,-2.75,54.0,1.01
453,Washougal,90,US,1603049304,67,45.58,-122.35,63.0,4.7
454,Galesong,20,ID,1603049304,94,-5.32,119.37,75.2,2.24
455,Hambantota,100,LK,1603049237,83,6.12,81.12,78.8,3.36
456,Lamar,90,US,1603049304,61,33.67,-95.58,82.0,14.99
457,Along,13,IN,1603049304,87,28.17,94.77,67.41,1.92
458,Beaverlodge,20,CA,1603049304,67,55.22,-119.44,19.4,2.24
459,Olafsvik,51,IS,1603048917,79,64.89,-23.71,41.65,31.68
460,Sebina,0,BW,1603049304,35,-20.87,27.25,71.6,2.24
461,Clyde River,90,CA,1603048721,86,70.47,-68.59,30.2,3.36
462,Pochutla,20,MX,1603049305,55,15.74,-96.47,91.4,5.73
463,Verāval,100,IN,1603049305,84,20.9,70.37,82.13,7.7
464,Brae,75,GB,1603049210,86,60.4,-1.35,41.0,6.93
465,Sisimiut,100,GL,1603048850,68,66.94,-53.67,43.05,18.68
466,Kwinana,0,AU,1603049305,52,-32.25,115.77,66.2,10.29
467,Bocanda,28,CI,1603049305,90,7.06,-4.5,76.24,3.49
468,Buenos Aires,99,CR,1603049305,63,9.17,-83.33,84.31,3.98
469,Chanika,8,TZ,1603049305,90,-5.42,38.02,68.7,8.03
470,Salto del Guairá,66,PY,1603049305,47,-24.06,-54.31,85.48,3.13
471,Batemans Bay,100,AU,1603049305,82,-35.72,150.18,55.0,1.14
472,Bambanglipuro,98,ID,1603049305,88,-7.95,110.28,76.75,9.89
473,Hohhot,0,CN,1603049167,55,40.81,111.65,33.8,2.24
474,Watertown,1,US,1603049305,41,42.37,-71.18,62.01,12.75
475,Santa Maria,75,CV,1603049306,78,16.6,-22.9,82.4,9.17
476,Ibotirama,98,BR,1603049045,31,-12.19,-43.22,90.9,4.79
477,Nara,41,ML,1603049306,15,15.17,-7.29,95.83,8.84
478,Salta,20,AR,1603049306,20,-24.79,-65.41,93.2,11.41
479,Sidney,95,US,1603049306,100,40.28,-84.16,60.01,17.9
480,Shingū,100,JP,1603049306,70,33.73,135.98,61.21,4.9
481,Xining,1,CN,1603049280,79,36.62,101.77,35.26,0.4
482,Platteville,40,US,1603049306,52,42.73,-90.48,46.0,8.05
483,Marsá Maţrūḩ,0,EG,1603048979,73,31.35,27.25,75.2,6.78
484,Ambilobe,0,MG,1603049109,68,-13.2,49.05,72.99,4.32
485,Yura,0,PE,1603049306,12,-16.25,-71.68,73.4,13.87
486,Margate,98,ZA,1603049306,79,-30.86,30.37,69.28,17.58
487,Broome,100,AU,1603049306,74,-17.97,122.23,78.8,11.41
488,Esna,0,EG,1603049307,38,25.29,32.55,87.8,3.36
489,Kenai,90,US,1603049307,86,60.55,-151.26,33.8,3.36
490,Tarakan,100,ID,1603049307,82,3.3,117.63,80.65,6.22
491,Myitkyina,96,MM,1603049307,89,25.38,97.4,72.27,1.34
492,Ajdabiya,100,LY,1603049367,75,30.76,20.23,75.18,14.27
493,Launceston,0,AU,1603049367,93,-41.45,147.17,39.99,3.36
494,Ihosy,39,MG,1603049367,82,-22.4,46.12,64.29,9.24
495,San Jeronimo,0,MX,1603048788,25,29.37,-110.79,95.0,1.99
496,Baiyin,0,CN,1603049367,79,36.56,104.21,46.0,6.71
497,Port-Cartier,75,CA,1603049367,87,50.03,-66.87,45.0,6.93
498,Hammerfest,40,NO,1603049367,100,70.66,23.68,30.2,9.17
499,Iralaya,85,HN,1603049367,67,15.0,-83.23,86.38,7.63
500,Mezen',100,RU,1603049368,96,65.85,44.24,33.17,7.14
501,Keflavik,40,IS,1603049368,81,64.0,-22.56,44.6,21.92
502,Taunggyi,84,MM,1603049368,92,20.78,97.03,59.61,2.86
503,Mikun',100,RU,1603049368,98,62.35,50.08,31.55,9.22
504,Matara,93,LK,1603049368,87,5.95,80.54,77.94,9.71
505,Charter Township of Clinton,75,US,1603049368,62,42.59,-82.92,57.99,17.22
506,Tual,100,ID,1603049368,82,-5.67,132.75,80.2,13.78
507,Lubbock,40,US,1603049368,51,33.6,-101.83,64.99,18.34
508,Vostok,0,RU,1603048917,94,46.49,135.88,23.45,3.62
509,Porto Santo,40,PT,1603049368,88,33.07,-16.34,71.6,16.11
510,Cap-aux-Meules,20,CA,1603049368,71,47.38,-61.86,50.0,8.05
511,Kailua,40,US,1603049171,74,21.4,-157.74,80.6,4.7
512,Praxédis Guerrero,5,MX,1603049369,9,31.37,-106.02,86.0,9.17
513,Lamu,1,KE,1603049369,83,-2.27,40.9,77.0,11.5
514,Larap,100,PH,1603049369,89,14.3,122.65,79.97,9.89
515,Mariënburg,100,SR,1603049369,71,5.85,-55.02,89.01,7.0
516,Alekseyevsk,100,RU,1603049369,89,57.84,108.35,39.87,8.88
517,Talakan,100,RU,1603049369,87,50.32,130.37,31.93,3.94
518,Pangody,30,RU,1603049369,97,65.85,74.49,24.73,13.4
519,Najrān,0,SA,1603049369,31,17.49,44.13,71.6,2.24
520,Yekaterinogradskaya,1,RU,1603049369,62,43.76,44.23,59.0,4.47
521,Dwārka,54,IN,1603049173,81,22.24,68.97,83.82,10.63
522,Stepnyak,0,KZ,1603049369,91,52.83,70.78,31.44,5.19
523,Louis Trichardt,0,ZA,1603049369,33,-23.04,29.9,77.16,3.56
524,Walvis Bay,0,NA,1603049370,82,-22.96,14.51,60.01,5.82
