City ID,City,Cloudiness (%),Country,Date,Humidity (%),Lat,Lng,Max Temp,Wind Speed (mph)
0,Nemuro,0,JP,1603040029,79,43.32,145.57,55.17,15.41
1,Jamestown,100,SH,1603040029,95,-15.94,-5.72,61.41,15.32
2,Chui,0,UY,1603040029,47,-33.7,-53.46,77.45,7.27
3,New Norfolk,71,AU,1603040029,81,-42.78,147.06,48.2,6.93
4,Yellowknife,90,CA,1603040029,92,62.46,-114.35,27.0,10.29
5,Mantua,26,CU,1603040029,63,22.29,-84.28,87.08,8.41
6,Hermanus,59,ZA,1603040029,68,-34.42,19.23,64.0,4.9
7,Nyuksenitsa,100,RU,1603040029,93,60.41,44.24,36.41,8.68
8,Lompoc,1,US,1603039804,67,34.64,-120.46,57.2,6.02
9,Port Elizabeth,28,ZA,1603040030,72,-33.92,25.57,64.4,14.99
10,Ouégoa,0,NC,1603040030,76,-20.35,164.43,69.71,10.29
11,Sarangani,100,PH,1603040030,80,5.4,125.46,81.46,11.01
12,Bambous Virieux,40,MU,1603040030,69,-20.34,57.76,75.2,9.17
13,Sur,0,OM,1603039888,27,22.57,59.53,84.07,12.21
14,Albany,40,AU,1603040030,87,-35.02,117.89,55.4,6.93
15,Sitka,90,US,1603040030,60,57.05,-135.33,42.8,5.82
16,Rikitea,74,PF,1603040030,79,-23.12,-134.97,74.82,21.23
17,Meulaboh,100,ID,1603040030,83,4.14,96.13,77.25,3.58
18,Lebu,0,CL,1603039694,61,-37.62,-73.65,55.53,7.99
19,Port-de-Bouc,0,FR,1603040030,48,43.4,4.98,60.8,8.05
20,Benguela,45,AO,1603040030,76,-12.58,13.41,76.32,6.76
21,Varadero,40,CU,1603040031,79,23.15,-81.25,84.2,11.41
22,Saldanha,43,ZA,1603039495,59,-33.01,17.94,64.4,16.11
23,Djougou,40,BJ,1603040031,58,9.71,1.67,86.0,9.17
24,Sola,4,VU,1603040031,81,-13.88,167.55,79.54,18.72
25,Bubaque,2,GW,1603040031,80,11.28,-15.83,83.12,9.51
26,Punta Arenas,75,CL,1603039925,57,-53.15,-70.92,48.2,23.04
27,Saint-Augustin,30,CA,1603039757,48,51.23,-58.65,55.71,11.95
28,Puerto Ayora,75,EC,1603040031,73,-0.74,-90.35,75.2,11.41
29,Ürümqi,1,CN,1603040031,37,43.8,87.6,51.8,6.71
30,Arraial do Cabo,40,BR,1603040031,65,-22.97,-42.03,77.0,16.11
31,Poronaysk,1,RU,1603040031,76,49.22,143.12,34.95,11.88
32,East London,44,ZA,1603039760,68,-33.02,27.91,64.4,12.75
33,Busselton,2,AU,1603040031,48,-33.65,115.33,63.0,10.45
34,Saskylakh,97,RU,1603040031,97,71.92,114.08,19.18,5.37
35,Kapaa,75,US,1603040031,94,22.08,-159.32,77.0,8.05
36,Salinas,90,EC,1603040032,78,-2.22,-80.97,75.2,10.29
37,Seoul,1,KR,1603039756,93,37.57,126.98,50.0,1.36
38,Tuxpan,40,MX,1603040032,78,19.55,-103.4,78.8,2.26
39,Hobart,46,AU,1603039993,81,-42.88,147.33,48.2,6.93
40,San Cristobal,75,EC,1603040032,83,-0.9,-89.62,75.2,10.29
41,Ponta do Sol,75,CV,1603039695,70,17.2,-25.09,86.0,8.05
42,Carnarvon,90,AU,1603039695,83,-24.87,113.63,69.8,13.87
43,Maragogi,38,BR,1603039772,66,-9.01,-35.22,79.77,12.28
44,Sørland,40,NO,1603040032,75,67.67,12.69,42.8,17.22
45,Limulunga,0,ZM,1603040032,14,-15.1,23.14,83.39,6.29
46,Bredasdorp,61,ZA,1603040032,72,-34.53,20.04,62.6,10.29
47,Fergus Falls,90,US,1603040032,74,46.28,-96.08,30.2,10.29
48,Geraldton,1,AU,1603040016,88,-28.77,114.6,62.6,6.93
49,Kavieng,18,PG,1603040092,75,-2.57,150.8,82.0,10.45
50,Kamaishi,0,JP,1603040092,72,39.27,141.88,54.37,5.75
51,Shingū,58,JP,1603040093,75,33.73,135.98,58.84,4.97
52,Guerrero Negro,4,MX,1603040093,52,27.98,-114.06,79.36,7.56
53,Pemangkat,100,ID,1603040017,82,1.17,108.97,78.87,4.16
54,Upernavik,27,GL,1603039567,89,72.79,-56.15,33.91,7.38
55,Cherskiy,82,RU,1603039468,92,68.75,161.3,20.16,7.92
56,Itarema,81,BR,1603040093,52,-2.92,-39.92,86.54,19.48
57,Bluff,100,NZ,1603040093,90,-46.6,168.33,46.99,1.99
58,Inongo,46,CD,1603040093,76,-1.95,18.27,77.74,2.98
59,Constitucion,5,MX,1603040093,42,23.99,-104.67,73.0,4.76
60,Bāglung,80,NP,1603040093,74,28.27,83.59,66.06,3.18
61,Galesburg,90,US,1603040094,86,40.95,-90.37,43.0,9.17
62,Ternate,100,ID,1603039758,78,0.8,127.4,81.61,9.78
63,Beausejour,90,CA,1603040094,98,50.06,-96.52,30.0,8.01
64,Atar,0,MR,1603039695,16,20.52,-13.05,98.87,9.28
65,Butaritari,68,KI,1603040094,73,3.07,172.79,81.61,17.72
66,Show Low,1,US,1603040094,9,34.25,-110.03,69.8,6.93
67,Antofagasta,90,CL,1603039756,82,-23.65,-70.4,59.0,11.41
68,Mahébourg,40,MU,1603040094,69,-20.41,57.7,75.2,9.17
69,Sioux Lookout,90,CA,1603040094,68,50.1,-91.92,30.2,11.41
70,Georgetown,43,SH,1603040094,74,-7.93,-14.42,74.61,9.89
71,Vaini,75,TO,1603040094,88,-21.2,-175.2,69.8,12.75
72,Tezu,3,IN,1603040094,69,27.92,96.17,74.93,3.56
73,Kenai,90,US,1603040094,96,60.55,-151.26,32.0,6.93
74,Zhangye,0,CN,1603040095,48,38.93,100.45,43.65,2.3
75,Atuona,18,PF,1603040095,76,-9.8,-139.03,77.77,18.92
76,Pozo Colorado,57,PY,1603040095,47,-23.49,-58.8,89.1,11.54
77,Constantine,20,DZ,1603040095,37,36.37,6.61,66.2,6.93
78,Roebourne,0,AU,1603040095,73,-20.78,117.13,68.49,14.09
79,Banda Aceh,100,ID,1603040095,69,5.56,95.32,82.04,10.58
80,Tuatapere,100,NZ,1603040095,90,-46.13,167.68,46.99,1.99
81,Qaanaaq,92,GL,1603040096,91,77.48,-69.36,32.13,7.43
82,Bandarbeyla,0,SO,1603040096,79,9.49,50.81,80.31,5.55
83,Dunedin,100,NZ,1603040096,90,-45.87,170.5,48.0,3.0
84,Saint Paul Harbor,75,US,1603040096,75,57.79,-152.41,42.8,8.05
85,Erenhot,7,CN,1603040096,51,43.65,111.98,44.98,9.62
86,Togur,100,RU,1603040096,94,58.36,82.83,29.73,17.11
87,Skibbereen,90,IE,1603040017,93,51.55,-9.27,53.6,13.87
88,Chapais,90,CA,1603040096,93,49.78,-74.85,41.0,17.22
89,Tabas,0,IR,1603040096,8,33.6,56.92,68.0,2.24
90,Marsciano,0,IT,1603040096,72,42.91,12.34,57.0,1.01
91,Nome,75,US,1603040059,80,64.5,-165.41,39.2,9.17
92,Ushuaia,40,AR,1603039818,71,-54.8,-68.3,44.6,21.92
93,San Fernando del Valle de Catamarca,0,AR,1603039840,32,-28.47,-65.79,100.99,15.01
94,Vardø,40,NO,1603040097,74,70.37,31.11,37.4,16.11
95,Port Blair,99,IN,1603040097,83,11.67,92.75,80.98,13.71
96,Nanortalik,86,GL,1603040097,93,60.14,-45.24,41.0,6.22
97,Adrar,0,DZ,1603039631,12,25.75,-1.0,87.91,8.46
98,Castro,75,CL,1603039630,71,-42.47,-73.77,55.0,19.46
99,Mar del Plata,77,AR,1603039941,65,-38.0,-57.56,80.6,6.93
100,Flin Flon,90,CA,1603039952,86,54.77,-101.86,28.4,12.75
101,Cidreira,95,BR,1603040157,70,-30.18,-50.21,71.8,17.45
102,Khatanga,2,RU,1603039888,86,71.97,102.5,7.41,8.25
103,Hithadhoo,100,MV,1603040157,77,-0.6,73.08,83.7,16.28
104,Batemans Bay,83,AU,1603040158,72,-35.72,150.18,55.99,3.65
105,Ancud,75,CL,1603040158,71,-41.87,-73.82,55.0,19.46
106,Tuktoyaktuk,20,CA,1603040158,92,69.45,-133.04,12.2,3.36
107,Charyshskoye,69,RU,1603040158,93,51.4,83.56,30.61,4.34
108,Camopi,74,GF,1603039695,36,3.17,-52.32,95.92,4.81
109,Greytown,82,ZA,1603040158,88,-29.06,30.59,63.95,5.97
110,Nakusp,100,CA,1603040158,97,50.25,-117.8,33.01,1.99
111,Sangar,100,RU,1603040158,96,63.92,127.47,14.45,6.98
112,Zhezkazgan,0,KZ,1603040158,49,47.8,67.71,49.03,13.27
113,Cape Town,20,ZA,1603040099,67,-33.93,18.42,64.0,16.11
114,Atambua,42,ID,1603040159,83,-9.11,124.89,74.37,1.79
115,Manali,90,IN,1603040159,100,13.17,80.27,78.8,2.24
116,Castleford,99,GB,1603040159,79,53.73,-1.36,50.0,3.8
117,Vostok,1,RU,1603040159,94,46.49,135.88,22.87,3.22
118,Provideniya,59,RU,1603040159,92,64.38,-173.3,33.71,5.19
119,Iqaluit,90,CA,1603039823,95,63.75,-68.51,32.0,5.82
120,Port Moresby,75,PG,1603040118,100,-9.44,147.18,77.0,6.93
121,Aquiraz,57,BR,1603040159,58,-3.9,-38.39,86.0,20.8
122,Kangaatsiaq,100,GL,1603040159,76,68.31,-53.46,38.48,23.67
123,Songjianghe,0,CN,1603040159,90,42.19,127.48,32.45,5.06
124,Barrow,1,US,1603040137,79,71.29,-156.79,19.4,14.99
125,Shache,0,CN,1603040018,45,38.42,77.24,48.49,6.06
126,Kherson,39,UA,1603040159,81,46.66,32.62,53.6,8.68
127,Kumul,100,CN,1603039953,40,42.8,93.45,49.3,4.21
128,Divnogorsk,40,RU,1603040160,59,55.96,92.36,33.8,11.18
129,Athabasca,0,CA,1603040160,81,54.72,-113.29,20.64,4.81
130,Hattiesburg,1,US,1603040160,56,31.33,-89.29,75.99,8.05
131,Severo-Kuril'sk,31,RU,1603040160,81,50.68,156.12,45.48,10.92
132,Port Alfred,50,ZA,1603040160,79,-33.59,26.89,63.0,9.95
133,Melfort,75,CA,1603040160,73,52.87,-104.62,26.6,17.22
134,Bethel,40,US,1603040145,54,41.37,-73.41,60.01,12.75
135,Harper,59,LR,1603040160,87,4.38,-7.72,78.93,9.42
136,İstisu,0,AZ,1603040161,82,40.95,48.07,59.0,4.7
137,Saint George,40,BM,1603040161,69,32.38,-64.68,82.4,18.34
138,Lüderitz,0,NA,1603039757,42,-26.65,15.16,70.0,24.29
139,Fortuna,1,US,1603039628,100,40.6,-124.16,51.8,3.36
140,Ostrovnoy,65,RU,1603040161,87,68.05,39.51,34.39,13.51
141,Hilo,75,US,1603040161,73,19.73,-155.09,71.6,6.93
142,Paphos,46,CY,1603040161,69,34.77,32.42,75.2,8.05
143,Hamilton,40,BM,1603040152,69,32.29,-64.78,82.4,18.34
144,Sena Madureira,43,BR,1603039930,35,-9.07,-68.66,96.26,2.21
145,Thompson,75,CA,1603040161,100,55.74,-97.86,24.8,4.7
146,Chiconcuac,5,MX,1603040162,52,19.55,-98.9,68.0,3.31
147,Usol'ye,100,RU,1603040222,96,59.43,56.68,32.0,5.99
148,Gweta,0,BW,1603040222,12,-20.18,25.23,89.96,1.5
149,Dingle,90,IE,1603040222,93,52.14,-10.27,55.4,6.93
150,Marabu,20,MY,1603039822,94,4.41,114.01,78.8,3.36
151,Río Gallegos,75,AR,1603040222,30,-51.62,-69.22,53.6,23.04
152,Victoria,20,SC,1603040222,69,-4.62,55.45,82.4,9.17
153,Luang Prabang,100,LA,1603040222,86,19.89,102.13,67.57,2.8
154,Maniitsoq,100,GL,1603040222,75,65.42,-52.9,44.62,10.6
155,Samaná,40,DO,1603040222,74,19.21,-69.34,86.0,4.7
156,Pevek,16,RU,1603039694,94,69.7,170.31,23.56,16.98
157,Koungheul,26,SN,1603040222,21,13.98,-14.8,101.59,8.28
158,Nikolskoye,90,RU,1603040223,95,59.7,30.79,36.0,4.47
159,Labuhan,52,ID,1603039631,78,-6.88,112.21,79.54,7.49
160,Kushima,71,JP,1603040223,87,31.46,131.23,59.0,1.99
161,Dikson,35,RU,1603039695,90,73.51,80.55,25.25,29.01
162,Karratha,0,AU,1603040017,72,-20.74,116.85,68.04,13.4
163,Luton,90,GB,1603040223,76,51.88,-0.42,52.0,1.12
164,Uvira,58,CD,1603040223,57,-3.41,29.15,78.55,4.88
165,Avarua,50,CK,1603040223,88,-21.21,-159.78,69.8,4.7
166,Alofi,87,NU,1603040223,94,-19.06,-169.92,77.0,8.05
167,Touros,75,BR,1603040223,74,-5.2,-35.46,82.4,20.8
168,Hofn,75,IS,1603039758,70,64.25,-15.21,46.4,12.75
169,Cap Malheureux,1,MU,1603040223,70,-19.98,57.61,73.0,3.0
170,Coyhaique,75,CL,1603040224,61,-45.58,-72.07,48.2,11.41
171,Saint-Philippe,27,RE,1603039630,78,-21.36,55.77,75.2,11.41
172,Tallahassee,40,US,1603040151,64,30.44,-84.28,80.01,6.93
173,Port Hardy,75,CA,1603040224,100,50.7,-127.42,46.4,9.17
174,Bac Lieu,100,VN,1603040224,85,9.29,105.72,78.08,3.96
175,Valdivia,75,CL,1603040224,76,-39.81,-73.25,55.4,10.29
176,Esperance,94,AU,1603040171,87,-33.87,121.9,55.4,9.17
177,Kaitangata,100,NZ,1603040224,91,-46.28,169.85,48.0,1.01
178,Pedernales,20,DO,1603040224,66,18.04,-71.74,87.8,13.87
179,Suslovo,99,RU,1603040224,92,56.22,88.12,31.84,15.99
180,Havøysund,75,NO,1603040224,71,71.0,24.66,35.6,9.17
181,Itupiranga,40,BR,1603040224,55,-5.13,-49.33,91.4,8.05
182,Port Shepstone,43,ZA,1603040224,80,-30.74,30.45,69.94,21.45
183,Hasaki,40,JP,1603039955,87,35.73,140.83,55.4,5.82
184,Tegul'det,91,RU,1603039887,92,57.31,88.17,31.78,14.72
185,Novotroitskaya,97,RU,1603040225,45,45.33,41.53,68.0,8.95
186,Grand Gaube,0,MU,1603040225,70,-20.01,57.66,73.0,3.0
187,Murmansk Oblast,100,RU,1603040225,94,68.0,34.0,29.3,12.01
188,Okha,94,RU,1603040225,82,53.57,142.95,36.0,20.76
189,Codajás,39,BR,1603040225,43,-3.84,-62.06,94.62,2.19
190,Chlórakas,47,CY,1603040225,69,34.8,32.41,75.2,8.05
191,Rovnoye,96,RU,1603040225,56,50.78,46.05,61.07,9.57
192,Berlevåg,20,NO,1603040225,100,70.86,29.09,32.0,2.24
193,Barra de Tecoanapa,83,MX,1603040225,57,16.52,-98.75,88.63,2.84
194,Chinna Salem,100,IN,1603040225,83,11.65,78.9,76.84,5.3
195,Baoding,0,CN,1603040227,38,38.85,115.49,54.32,2.33
196,Makakilo City,40,US,1603039663,88,21.35,-158.09,77.0,5.23
197,Lithakia,20,GR,1603040287,60,37.72,20.83,68.0,3.36
198,Chelyabinsk,84,RU,1603040037,48,55.15,61.43,41.0,13.42
199,Mikhaylovka,0,KZ,1603040287,36,43.0,71.5,44.6,4.47
200,Somogyvár,22,HU,1603040287,81,46.58,17.66,50.0,2.86
201,Namatanai,99,PG,1603040287,77,-3.67,152.43,79.83,6.02
202,Kargasok,100,RU,1603040287,93,59.06,80.86,28.99,17.56
203,Birao,0,CF,1603040287,41,10.28,22.79,80.76,2.93
204,Velyka Lepetykha,54,UA,1603040288,57,47.18,33.94,59.76,7.81
205,Palmer,75,US,1603039759,54,42.16,-72.33,60.01,4.7
206,São João da Barra,75,BR,1603039522,57,-21.64,-41.05,78.8,13.87
207,Araouane,0,ML,1603040288,11,18.9,-3.53,98.65,10.27
208,Buluang,99,PH,1603040288,90,13.31,123.34,76.95,3.65
209,Leningradskiy,0,RU,1603039952,86,69.38,178.42,21.88,6.06
210,Tasiilaq,40,GL,1603040288,80,65.61,-37.64,33.8,18.34
211,Auki,73,SB,1603040288,81,-8.77,160.7,78.28,3.74
212,Shenjiamen,91,CN,1603040288,64,29.96,122.3,65.66,10.0
213,Norman Wells,40,CA,1603040288,84,65.28,-126.83,6.8,5.82
214,Portland,40,AU,1603039760,89,-38.33,141.6,49.1,5.86
215,Longyearbyen,40,SJ,1603040288,73,78.22,15.64,26.6,11.41
216,Santiago de Cao,46,PE,1603040288,72,-7.96,-79.24,68.0,12.75
217,Matara,64,LK,1603039759,86,5.95,80.54,78.6,10.56
218,Suez,0,EG,1603040289,59,29.97,32.53,76.37,11.86
219,Kapuskasing,90,CA,1603040289,87,49.42,-82.43,35.6,11.41
220,Sechura,18,PE,1603039824,52,-5.56,-80.82,77.41,13.58
221,Husavik,90,IS,1603040289,81,66.04,-17.34,42.8,13.87
222,Hervey Bay,53,AU,1603040026,88,-25.3,152.85,68.0,5.82
223,Arrondissement de Lannion,97,FR,1603040289,71,48.75,-3.42,55.4,4.7
224,Cockburn Town,81,TC,1603039822,76,21.46,-71.14,82.81,11.97
225,Málaga,76,ES,1603040266,63,36.72,-4.42,69.01,4.7
226,Acacoyagua,40,MX,1603040289,66,15.35,-92.65,87.8,3.2
227,Souillac,40,MU,1603040289,69,-20.52,57.52,75.2,9.17
228,Bafoulabé,22,ML,1603040289,22,13.81,-10.83,100.22,5.53
229,Clyde River,1,CA,1603040289,85,70.47,-68.59,21.2,3.36
230,Mossamedes,28,AO,1603039472,72,-15.2,12.15,70.88,9.86
231,Kahului,40,US,1603039537,83,20.89,-156.47,75.2,6.93
232,Ayní,0,TJ,1603040290,44,39.39,68.54,50.94,2.71
233,Quattro Castella,9,IT,1603040290,72,44.63,10.47,60.8,3.36
234,Pisco,90,PE,1603040290,82,-13.7,-76.22,64.99,5.82
235,Svay Rieng,100,KH,1603040290,94,11.09,105.8,74.16,5.97
236,Ahipara,67,NZ,1603040290,93,-35.17,173.17,55.65,6.29
237,Beringovskiy,69,RU,1603040290,85,63.05,179.32,34.38,5.79
238,Hambantota,63,LK,1603040290,77,6.12,81.12,79.5,16.42
239,Sri Aman,99,MY,1603040290,94,1.24,111.46,73.4,1.12
240,Sagua la Grande,75,CU,1603040290,79,22.81,-80.08,84.2,9.17
241,Eyl,35,SO,1603040290,74,7.98,49.82,81.01,15.37
242,Marquette,98,US,1603040290,56,46.53,-87.63,43.0,7.0
243,Salinópolis,53,BR,1603040290,64,-0.61,-47.36,85.37,11.81
244,Zyryanka,78,RU,1603040350,92,65.75,150.85,18.28,2.55
245,Goma,75,CD,1603040351,77,-1.68,29.22,68.0,6.93
246,Calama,0,CL,1603040164,6,-22.47,-68.93,77.0,18.34
247,Cabo San Lucas,5,MX,1603040351,74,22.89,-109.91,89.01,8.05
248,Nizhnyaya Omka,10,RU,1603040351,91,55.43,74.94,32.22,9.46
249,Moura,92,PT,1603040351,29,38.14,-7.45,77.0,12.75
250,Padang,69,ID,1603040351,77,-0.95,100.35,78.76,4.14
251,Coahuayana Viejo,40,MX,1603040351,78,18.73,-103.68,78.8,2.24
252,Thinadhoo,84,MV,1603040351,77,0.53,72.93,83.77,16.49
253,Penzance,56,GB,1603040351,76,50.12,-5.54,54.0,9.17
254,Nouakchott,0,MR,1603039666,12,18.09,-15.98,105.8,11.41
255,Burnie,22,AU,1603040351,78,-41.07,145.92,48.0,3.0
256,Isla Mujeres,75,MX,1603040351,74,21.23,-86.73,86.0,9.17
257,North Battleford,90,CA,1603040351,57,52.78,-108.28,23.0,12.75
258,Chiredzi,5,ZW,1603040351,30,-21.05,31.67,83.93,6.89
259,Negara,28,ID,1603040352,86,-8.32,114.6,76.84,6.87
260,Bulgan,41,MN,1603040352,69,48.81,103.53,35.56,3.56
261,Lucapa,23,AO,1603040352,62,-8.42,20.74,75.54,2.68
262,Kudahuvadhoo,31,MV,1603040352,78,2.67,72.89,83.08,14.52
263,Dembī Dolo,92,ET,1603040352,100,8.53,34.8,57.65,1.66
264,Bloomington,75,US,1603040352,50,44.84,-93.3,33.8,17.22
265,Murashi,100,RU,1603040352,95,59.4,48.96,35.96,11.14
266,Grindavik,75,IS,1603040352,81,63.84,-22.43,44.6,20.8
267,Quelimane,9,MZ,1603040352,69,-17.88,36.89,77.0,8.05
268,Atasū,0,KZ,1603040352,64,48.68,71.64,39.79,8.81
269,Yumen,62,CN,1603040353,41,40.28,97.2,45.46,14.47
270,Kieta,89,PG,1603040353,76,-6.22,155.63,78.82,1.21
271,Şuhut,46,TR,1603040353,62,38.53,30.55,61.61,8.25
272,Praxédis Guerrero,5,MX,1603040353,16,31.37,-106.02,78.8,5.82
273,Comodoro Rivadavia,0,AR,1603040353,20,-45.87,-67.5,66.2,28.86
274,Korem,39,ET,1603040353,70,12.51,39.52,56.62,3.62
275,Acaraú,83,BR,1603040353,49,-2.89,-40.12,87.71,21.09
276,Kelo,10,TD,1603040353,55,9.31,15.81,82.35,4.03
277,Micheweni,47,TZ,1603040353,74,-4.97,39.83,79.09,9.46
278,Katsuura,40,JP,1603040353,82,35.13,140.3,57.2,9.17
279,Kilindoni,0,TZ,1603040353,79,-7.91,39.67,79.21,12.19
280,Petropavlovsk-Kamchatskiy,75,RU,1603039886,100,53.05,158.65,35.6,6.71
281,Cape Coast,23,GH,1603040353,85,5.11,-1.25,79.23,11.97
282,Tabou,41,CI,1603040353,84,4.42,-7.35,79.54,9.73
283,Tiksi,100,RU,1603040354,96,71.69,128.87,18.63,18.41
284,Ust'-Ishim,47,RU,1603040354,95,57.69,71.17,30.72,6.49
285,Salalah,0,OM,1603039954,69,17.02,54.09,80.6,2.24
286,Fallon,1,US,1603040354,30,39.47,-118.78,68.0,4.7
287,Shenkursk,99,RU,1603040354,96,62.11,42.9,32.61,8.34
288,Port Augusta,0,AU,1603040354,81,-32.5,137.77,53.6,8.05
289,Pangnirtung,90,CA,1603040354,81,66.15,-65.71,42.8,19.46
290,Coquimbo,90,CL,1603040354,82,-29.95,-71.34,57.2,10.29
291,Patitiri,40,GR,1603040354,68,39.15,23.87,68.0,5.82
292,Cockburn Town,100,BS,1603040404,78,24.03,-74.52,82.13,12.77
293,Mil'kovo,87,RU,1603040368,86,54.72,158.62,35.38,5.37
294,Qasigiannguit,75,GL,1603040415,56,68.82,-51.19,41.0,8.05
295,Vila Franca do Campo,20,PT,1603040415,59,37.72,-25.43,62.6,14.99
296,Kpandae,56,GH,1603040415,72,8.47,-0.01,85.19,2.01
297,Yidu,13,CN,1603040415,90,24.16,115.13,60.04,2.95
298,Valparaíso,0,CL,1603040415,72,-33.04,-71.63,60.8,6.93
299,Ugoofaaru,94,MV,1603040337,77,5.67,73.0,82.74,10.16
300,Cabedelo,75,BR,1603040415,62,-6.98,-34.83,84.2,14.99
301,Seydi,0,TM,1603040415,25,39.48,62.91,62.71,11.54
302,Vallenar,0,CL,1603040416,24,-28.57,-70.76,83.32,9.93
303,Ribeira Grande,20,PT,1603040310,52,38.52,-28.7,64.4,11.41
304,Līvāni,61,LV,1603040416,87,56.35,26.18,38.28,9.33
305,Homer,90,US,1603040416,93,59.64,-151.55,39.99,3.36
306,Mt. Pleasant,1,US,1603040289,68,32.79,-79.86,72.0,6.93
307,Richards Bay,18,ZA,1603040416,84,-28.78,32.04,73.06,9.93
308,Lagoa,61,PT,1603040416,62,39.05,-27.98,62.51,15.32
309,Chokurdakh,94,RU,1603040416,98,70.63,147.92,19.85,7.54
310,Ayagoz,98,KZ,1603040417,78,47.97,80.44,39.42,18.75
311,Vestmannaeyjar,75,IS,1603040417,93,63.44,-20.27,42.8,9.17
312,Honiara,20,SB,1603039955,100,-9.43,159.95,75.2,2.24
313,Svetlogorsk,40,RU,1603040417,70,54.94,20.15,48.99,11.18
314,Pervomayskoye,0,RU,1603040417,92,43.92,46.71,58.62,7.34
315,Preobrazheniye,0,RU,1603040417,56,42.9,133.91,46.27,6.93
316,San Quintín,46,MX,1603040417,47,30.48,-115.95,79.72,11.16
317,Mercedes,0,AR,1603040417,57,-34.65,-59.43,93.99,5.01
318,Kloulklubed,75,PW,1603039825,83,7.04,134.26,80.6,9.17
319,Biloela,2,AU,1603040418,89,-24.42,150.5,60.62,2.59
320,Cuxhaven,75,DE,1603040418,81,53.87,8.69,48.2,8.05
321,Letlhakane,1,BW,1603040418,14,-21.42,25.58,88.81,8.41
322,Eston,90,CA,1603040404,57,51.15,-108.75,21.0,10.29
323,Petropavlovka,25,RU,1603040418,73,50.61,105.32,37.83,2.8
324,Skegness,75,GB,1603040418,76,53.14,0.34,51.8,4.7
325,Rāmpura,0,IN,1603040418,21,30.25,75.23,73.42,5.39
326,Aksarka,59,RU,1603040418,96,66.56,67.8,23.22,11.81
327,Klaksvík,100,FO,1603039824,93,62.23,-6.59,39.2,6.93
328,Venado Tuerto,0,AR,1603040418,37,-33.75,-61.97,102.0,11.01
329,Olinda,40,BR,1603040202,62,-8.01,-34.86,84.2,13.87
330,Batagay-Alyta,98,RU,1603040419,88,67.8,130.41,15.48,3.8
331,Pierre,1,US,1603040419,60,44.37,-100.35,35.01,11.41
332,Zhigansk,85,RU,1603039955,95,66.77,123.37,11.23,4.36
333,Örnsköldsvik,75,SE,1603040419,87,63.29,18.72,32.0,17.22
334,Villa Carlos Paz,0,AR,1603040419,27,-31.42,-64.5,99.0,1.99
335,Narsaq,56,GL,1603040419,88,60.92,-46.05,41.0,3.09
336,Upington,17,ZA,1603040419,6,-28.45,21.26,91.4,8.05
337,Puerto Quijarro,99,BO,1603040419,23,-17.78,-57.77,104.32,5.59
338,Ondangwa,0,NA,1603040420,7,-17.92,15.95,102.2,3.36
339,Tazovsky,99,RU,1603039951,95,67.47,78.7,20.37,15.01
340,Quezon,100,PH,1603040480,89,7.73,125.1,72.95,0.94
341,Atbasar,17,KZ,1603040480,70,51.8,68.33,36.7,1.79
342,Flinders,70,AU,1603039950,84,-34.58,150.86,59.0,1.01
343,Kokkola,75,FI,1603040480,93,63.84,23.13,37.99,3.36
344,Solnechnyy,100,RU,1603040480,75,50.72,136.63,28.67,9.44
345,Mulchén,20,CL,1603040480,76,-37.72,-72.23,57.2,5.59
346,Kupang,13,ID,1603040480,77,-10.17,123.58,78.75,5.82
347,Pinega,100,RU,1603040480,94,64.7,43.39,32.81,7.56
348,Tosya,58,TR,1603040480,64,41.02,34.04,58.53,1.63
349,Serenje,12,ZM,1603040481,39,-13.23,30.24,69.57,1.45
350,Viedma,3,AR,1603040481,15,-40.81,-63.0,79.0,7.0
351,Paamiut,47,GL,1603039889,88,61.99,-49.67,41.85,30.82
352,Bengkulu,88,ID,1603040294,89,-3.8,102.27,75.76,7.56
353,Shillong,40,IN,1603040481,100,25.57,91.88,82.4,1.19
354,Wukari,30,NG,1603040481,75,7.85,9.78,81.14,4.9
355,Torbat-e Jām,0,IR,1603040481,34,35.24,60.62,55.74,12.28
356,Belaya Gora,99,RU,1603040481,98,68.53,146.42,20.8,10.78
357,Hirson,100,FR,1603040481,48,49.92,4.08,51.01,4.68
358,Nueva Loja,75,EC,1603040481,74,0.08,-76.88,80.6,4.7
359,Loviisa,34,FI,1603040481,79,60.46,26.23,35.6,5.82
360,Fukuechō,100,JP,1603040482,62,32.69,128.84,68.36,15.79
361,Chuzhou,71,CN,1603040482,62,32.32,118.3,61.0,5.17
362,Linshui,61,CN,1603040482,37,36.42,114.2,57.38,1.54
363,Mergen,16,CN,1603040482,84,49.18,125.22,33.71,8.68
364,Verkhniye Tatyshly,100,RU,1603040482,67,56.29,55.86,40.98,13.91
365,Truckee,5,US,1603040313,59,39.33,-120.18,61.0,4.85
366,Shimoda,56,JP,1603040340,74,34.67,138.95,55.0,8.81
367,Bilma,0,NE,1603040319,11,18.69,12.92,90.41,6.17
368,Zhongxing,75,CN,1603040482,49,33.7,118.68,56.53,4.54
369,Srednekolymsk,90,RU,1603040482,98,67.45,153.68,22.48,4.09
370,Ţahţā,0,EG,1603040483,18,26.77,31.5,93.2,11.41
371,Lavrentiya,93,RU,1603040483,90,65.58,-171.0,35.31,1.32
372,Balkhash,0,KZ,1603040483,57,46.84,74.98,51.89,12.3
373,Aljezur,78,PT,1603040483,54,37.32,-8.8,72.0,5.01
374,Chumikan,99,RU,1603040483,85,54.72,135.31,28.71,18.77
375,Embonas,20,GR,1603040483,78,36.23,27.86,78.8,4.7
376,Halifax,17,CA,1603040435,44,44.65,-63.57,59.0,5.99
377,Sawtell,90,AU,1603040483,93,-30.38,153.1,64.4,5.82
378,Caravelas,53,BR,1603040323,67,-17.71,-39.25,78.3,11.32
379,Porto Belo,20,BR,1603040483,78,-27.16,-48.55,77.0,6.93
380,Winnemucca,1,US,1603040483,34,40.97,-117.74,51.8,4.7
381,Mogadishu,89,SO,1603040343,80,2.04,45.34,79.38,12.15
382,Nanlong,53,CN,1603040484,88,31.35,106.06,54.41,1.3
383,Ihosy,4,MG,1603040484,77,-22.4,46.12,66.16,10.49
384,Komsomol'skiy,0,RU,1603040484,92,43.98,46.7,58.69,7.31
385,Taltal,37,CL,1603040442,62,-25.4,-70.48,62.69,4.79
386,Rio de Janeiro,75,BR,1603040303,65,-22.9,-43.21,80.6,10.29
387,Dawei,100,MM,1603040484,91,14.08,98.2,72.95,7.29
388,Faanui,21,PF,1603040484,83,-16.48,-151.75,78.66,9.31
389,Diego de Almagro,0,CL,1603040484,17,-26.37,-70.05,83.3,14.65
390,Kibre Mengist,84,ET,1603040484,95,5.88,38.98,60.35,1.77
391,Russell,13,NZ,1603040545,92,-35.26,174.12,51.01,1.01
392,Songea,20,TZ,1603040529,50,-10.68,35.65,78.8,9.17
393,Mount Isa,25,AU,1603040545,25,-20.73,139.5,84.2,8.05
394,Nuuk,40,GL,1603040545,87,64.18,-51.72,42.8,1.12
395,Casper,90,US,1603040395,92,42.87,-106.31,27.0,6.93
396,Xixiang,89,CN,1603040545,99,35.16,112.86,59.0,2.89
397,Moyale,42,KE,1603040545,60,3.52,39.06,71.64,4.54
398,Los Llanos de Aridane,20,ES,1603040545,73,28.66,-17.92,77.0,20.8
399,Isangel,3,VU,1603040327,71,-19.55,169.27,70.39,5.14
400,Bodden Town,40,KY,1603040545,70,19.28,-81.25,89.6,11.41
401,Namasuba,100,UG,1603040545,100,0.69,32.42,64.96,4.21
402,Quatá,58,BR,1603040545,33,-22.25,-50.7,91.42,1.74
403,Segezha,100,RU,1603040546,82,63.74,34.32,36.57,12.3
404,Roma,58,AU,1603040546,83,-26.58,148.78,59.79,2.57
405,Cayenne,47,GF,1603040546,55,4.93,-52.33,91.4,10.29
406,Biloxi,1,US,1603040477,64,30.4,-88.89,77.0,8.05
407,Te Anau,100,NZ,1603040546,91,-45.42,167.72,44.08,1.05
408,Volodarka,81,UA,1603040546,84,49.52,29.91,46.49,7.31
409,Manono,29,CD,1603040546,47,-7.3,27.42,80.82,1.03
410,Tvøroyri,100,FO,1603040546,93,61.56,-6.81,39.2,6.93
411,Tabatinga,75,BR,1603040546,100,-4.25,-69.94,84.2,6.93
412,Benghazi,100,LY,1603040546,79,32.12,20.07,73.56,17.85
413,Broome,5,AU,1603040546,74,-17.97,122.23,78.8,11.41
414,Argayash,88,RU,1603040546,48,55.49,60.88,41.0,13.42
415,Diamantina,93,BR,1603040547,69,-18.25,-43.6,69.31,7.74
416,Kalmunai,100,LK,1603040334,80,7.42,81.82,80.76,3.71
417,Gagino,61,RU,1603040547,87,55.23,45.03,47.5,11.41
418,Mayor Pablo Lagerenza,16,PY,1603040547,24,-19.93,-60.77,102.81,10.18
419,Anadyr,11,RU,1603040547,92,64.75,177.48,19.4,4.47
420,Biak,96,ID,1603040547,79,-0.91,122.88,76.82,4.9
421,Shadrinsk,86,RU,1603040547,76,56.09,63.63,37.11,11.41
422,Atlantic City,20,US,1603040275,55,39.36,-74.42,66.0,13.87
423,Nānākuli,40,US,1603040547,88,21.39,-158.15,77.0,5.64
424,Alanya,40,TR,1603040380,78,36.54,32.0,77.0,4.7
425,Salym,0,RU,1603040547,95,60.06,71.48,27.46,8.9
426,Rafai,92,CF,1603040547,93,4.95,23.92,72.16,1.79
427,Ulladulla,90,AU,1603040327,93,-35.35,150.47,55.99,10.29
428,Merowe,0,SD,1603040547,12,18.48,31.82,89.8,9.55
429,Torbay,75,CA,1603040548,87,47.67,-52.73,59.0,9.17
430,Fairbanks,40,US,1603040406,78,64.84,-147.72,15.01,1.28
431,Dos Hermanas,60,ES,1603040419,24,37.28,-5.92,81.0,5.82
432,Narasannapeta,86,IN,1603040548,86,18.42,84.05,80.29,6.2
433,Saint-Georges,20,GF,1603040548,55,3.9,-51.8,91.4,6.93
434,Sārangarh,89,IN,1603040332,79,21.6,83.08,78.06,0.98
435,Abonnema,73,NG,1603040548,80,4.71,6.79,81.05,8.01
436,Burgeo,10,CA,1603040548,64,47.62,-57.62,55.22,7.58
437,Ketchikan,40,US,1603040326,93,55.34,-131.65,46.4,3.0
438,Verkhnevilyuysk,0,RU,1603040548,94,63.45,120.32,11.82,2.42
439,Kruisfontein,27,ZA,1603040333,70,-34.0,24.73,61.0,1.99
440,Samarai,83,PG,1603040608,88,-10.62,150.67,79.12,8.5
441,Bacolod City,100,PH,1603040609,83,10.67,122.95,79.09,6.13
442,Barkhan,1,PK,1603040466,23,29.9,69.53,65.1,3.4
443,Mitú,74,CO,1603040609,42,1.2,-70.17,96.28,0.51
444,Olafsvik,68,IS,1603040609,75,64.89,-23.71,41.25,25.01
445,Port Lincoln,1,AU,1603040609,79,-34.73,135.87,52.36,9.53
446,Saint-Pierre,20,PM,1603040609,82,46.77,-56.17,57.2,6.93
447,Muisne,90,EC,1603040609,83,0.6,-80.03,80.6,9.17
448,College,40,US,1603040609,78,64.86,-147.8,15.01,1.12
449,Bud,40,NO,1603040609,86,62.91,6.91,37.4,4.7
450,Cabinda,83,AO,1603040609,80,-5.55,12.2,79.39,10.45
451,Iskateley,0,RU,1603040358,94,67.68,53.15,29.03,2.71
452,Stokmarknes,20,NO,1603040609,74,68.56,14.91,39.2,3.36
453,Butembo,65,CD,1603040609,100,0.15,29.28,60.62,1.21
454,Shinpokh,0,PK,1603040609,60,34.33,71.18,71.6,2.33
455,Iglesias,40,IT,1603040610,59,39.31,8.54,69.01,12.75
456,Diffa,0,NE,1603040610,11,13.32,12.61,94.21,8.41
457,Guangyuan,69,CN,1603040610,84,32.44,105.82,57.99,2.68
458,Port Hedland,0,AU,1603040610,78,-20.32,118.57,73.4,10.29
459,Ibadan,40,NG,1603040610,62,7.39,3.9,87.8,5.82
460,Zeya,80,RU,1603040610,88,53.75,127.27,22.37,2.42
461,Tungor,91,RU,1603040610,85,53.38,142.96,35.4,17.65
462,Tautira,40,PF,1603040493,88,-17.73,-149.15,75.2,2.24
463,Magadan,100,RU,1603040610,89,59.57,150.8,35.69,3.71
464,Djenné,68,ML,1603040611,17,13.91,-4.55,100.58,5.57
465,Babu,63,CN,1603040611,81,24.42,111.52,60.8,6.4
466,Qui Nhon,100,VN,1603040611,87,13.77,109.23,77.31,5.37
467,Kamenka,14,RU,1603040611,67,51.32,42.77,55.0,10.74
468,Noboribetsu,20,JP,1603040611,100,42.45,141.17,46.0,3.36
469,Poum,0,NC,1603040611,72,-20.23,164.02,73.24,17.31
470,Yulara,90,AU,1603040611,88,-25.24,130.99,68.0,13.87
471,Lalín,20,ES,1603040611,59,42.72,-8.12,66.99,4.7
472,Sumbe,43,AO,1603040611,81,-11.21,13.84,76.89,7.25
473,Mareeba,43,AU,1603040611,88,-17.0,145.43,69.01,1.12
474,Dudinka,75,RU,1603040611,92,69.41,86.18,17.6,13.42
475,Nouadhibou,21,MR,1603040611,40,20.93,-17.03,86.0,14.99
476,Girau do Ponciano,91,BR,1603040612,39,-9.88,-36.83,88.41,15.52
477,Sharjah city,0,AE,1603040493,20,25.36,55.4,87.8,4.7
478,Bat Yam,0,IL,1603040612,74,32.02,34.75,79.0,10.29
479,Ucluelet,90,CA,1603040532,100,48.93,-125.55,53.01,2.24
480,Kavaratti,1,IN,1603040319,77,10.57,72.64,81.45,10.67
481,Sinnamary,52,GF,1603040355,59,5.38,-52.95,87.58,10.16
482,Riyadh,0,SA,1603040394,19,24.69,46.72,80.6,4.7
483,Verkhoyansk,100,RU,1603040612,95,67.54,133.38,16.16,5.03
484,Quirinópolis,43,BR,1603040612,30,-18.45,-50.45,93.92,2.89
485,Pitimbu,75,BR,1603040612,62,-7.47,-34.81,84.2,14.99
486,Uvalde,75,US,1603040589,69,29.37,-99.77,82.99,6.93
487,Ban Nahin,100,LA,1603040612,92,18.24,104.21,67.39,6.11
488,Bonthe,93,SL,1603040613,80,7.53,-12.51,82.08,8.72
489,Dombarovskiy,58,RU,1603040673,51,50.76,59.54,47.68,17.2
490,Porto Novo,75,CV,1603040673,70,17.02,-25.06,86.0,8.05
491,Pontianak,100,ID,1603040673,90,-0.03,109.33,77.54,1.88
492,Altay,92,CN,1603040673,59,47.87,88.12,40.8,1.54
493,Zakamensk,100,RU,1603040673,84,50.37,103.29,33.1,2.95
494,Bauchi,19,NG,1603040673,37,10.5,10.0,84.49,5.26
495,La Ronge,90,CA,1603040673,79,55.1,-105.28,23.0,12.75
496,Edmundston,1,CA,1603040532,70,47.37,-68.33,54.0,6.93
497,Dongsheng,0,CN,1603040674,57,39.82,109.98,40.12,2.75
498,Deputatsky,100,RU,1603040674,96,69.3,139.9,13.53,9.71
499,Healdsburg,1,US,1603040674,51,38.61,-122.87,73.99,0.56
500,Khovd,2,MN,1603040674,62,48.01,91.64,38.48,10.76
501,Novyy Nekouz,100,RU,1603040674,96,57.9,38.07,35.53,15.52
502,Uk,100,RU,1603040674,74,55.08,98.86,42.84,6.06
503,Camaná,70,PE,1603040529,67,-16.62,-72.71,65.34,6.17
504,Saint-François,3,GP,1603040674,88,16.25,-61.27,75.2,17.22
505,Ziway,20,ET,1603040674,48,7.93,38.72,69.67,5.88
506,Vung Tau,100,VN,1603040674,90,10.35,107.08,76.78,5.68
507,Columbus,90,US,1603040577,70,39.96,-83.0,51.01,6.93
508,Jiuquan,12,CN,1603040674,50,39.74,98.52,41.02,2.75
509,Cam Ranh,40,VN,1603040674,88,11.92,109.16,80.6,2.24
510,Strezhevoy,76,RU,1603040675,74,60.73,77.59,30.2,11.18
511,Buraidah,0,SA,1603040675,19,26.33,43.98,78.8,5.82
512,Anloga,40,GH,1603040675,70,5.79,0.9,86.0,12.75
513,Waingapu,4,ID,1603040675,73,-9.66,120.26,79.61,3.11
514,San Miguel de Tucumán,0,AR,1603040675,33,-26.82,-65.22,100.4,6.93
515,Phrae,100,TH,1603040675,99,18.08,100.0,67.59,1.19
516,Khasan,0,RU,1603040675,55,42.43,130.64,46.9,8.55
517,Inírida,48,CO,1603040675,55,3.87,-67.92,91.27,1.9
518,Soligalich,100,RU,1603040675,95,59.08,42.29,43.23,7.78
519,Kodinsk,99,RU,1603040675,92,58.69,99.18,32.77,13.13
520,Kasane,0,BW,1603040675,15,-17.82,25.15,81.64,6.78
521,Kultuk,100,RU,1603040676,62,51.72,103.7,43.18,6.29
522,Puri,75,IN,1603040676,94,19.8,85.85,78.8,10.94
523,Christchurch,100,NZ,1603040676,100,-43.53,172.63,51.01,5.82
524,Khorixas,27,NA,1603040676,12,-20.37,14.97,89.22,12.06
