City ID,City,Cloudiness (%),Country,Date,Humidity (%),Lat,Lng,Max Temp,Wind Speed (mph)
0,Jinchang,0,CN,1603041137,50,38.5,102.17,45.45,4.45
1,Kapaa,75,US,1603040802,94,22.08,-159.32,77.0,8.05
2,Mount Isa,25,AU,1603040545,25,-20.73,139.5,84.2,8.05
3,Cocorit,5,MX,1603041137,70,27.58,-109.97,84.2,3.36
4,Busselton,2,AU,1603040802,49,-33.65,115.33,62.01,10.45
5,Narsaq,56,GL,1603041137,88,60.92,-46.05,41.0,3.36
6,Kloulklubed,75,PW,1603041137,78,7.04,134.26,82.4,9.17
7,Constitucion,5,MX,1603040864,42,23.99,-104.67,73.0,4.76
8,Cidreira,95,BR,1603040928,70,-30.18,-50.21,71.8,17.45
9,Bethel,40,US,1603040931,54,41.37,-73.41,60.01,12.75
10,Cherskiy,82,RU,1603040863,92,68.75,161.3,20.16,7.92
11,Lüderitz,0,NA,1603040931,42,-26.65,15.16,70.0,24.29
12,Punta Arenas,75,CL,1603040660,57,-53.15,-70.92,48.2,23.04
13,Ilām,0,NP,1603041138,86,26.92,87.92,63.21,3.24
14,Tuktoyaktuk,20,CA,1603040928,92,69.45,-133.04,12.2,3.36
15,Russell,13,NZ,1603040545,92,-35.26,174.12,51.01,1.01
16,Upernavik,27,GL,1603040863,89,72.79,-56.15,33.91,7.38
17,La Ronge,90,CA,1603040673,79,55.1,-105.28,23.0,12.75
18,Chapais,90,CA,1603040867,93,49.78,-74.85,41.0,17.22
19,Rikitea,74,PF,1603040800,79,-23.12,-134.97,74.82,21.23
20,Salinas,90,EC,1603040802,78,-2.22,-80.97,75.2,10.29
21,Hithadhoo,100,MV,1603040928,77,-0.6,73.08,83.7,16.28
22,Vaini,75,TO,1603040865,88,-21.2,-175.2,69.8,12.75
23,Fuyu,17,CN,1603041138,62,45.18,124.82,41.88,9.89
24,São João da Barra,75,BR,1603041057,57,-21.64,-41.05,78.8,13.87
25,Praia,27,CV,1603041138,70,14.92,-23.51,86.0,11.41
26,Katsuura,40,JP,1603041123,82,35.13,140.3,57.2,9.17
27,Fergus Falls,90,US,1603040601,74,46.28,-96.08,30.99,10.29
28,Butaritari,68,KI,1603040864,73,3.07,172.79,81.61,17.72
29,Torbay,75,CA,1603040548,87,47.67,-52.73,59.0,9.17
30,Sambalpur,100,IN,1603041139,82,21.45,83.97,78.31,1.59
31,Meulaboh,100,ID,1603040800,83,4.14,96.13,77.25,3.58
32,Dikson,35,RU,1603040993,90,73.51,80.55,25.25,29.01
33,Hobyo,8,SO,1603041139,79,5.35,48.53,80.06,19.42
34,Qaanaaq,92,GL,1603040866,91,77.48,-69.36,32.13,7.43
35,San Juan de Abajo,75,MX,1603041139,70,20.82,-105.18,86.0,2.89
36,New Norfolk,71,AU,1603040799,81,-42.78,147.06,48.2,6.93
37,Ruteng,38,ID,1603041139,100,-8.61,120.47,63.52,2.35
38,Kargasok,100,RU,1603041056,93,59.06,80.86,28.99,17.56
39,Port Blair,99,IN,1603040867,83,11.67,92.75,80.98,13.71
40,Dingle,90,IE,1603040992,93,52.14,-10.27,55.4,6.93
41,Jamestown,100,SH,1603040799,95,-15.94,-5.72,61.41,15.32
42,Ponta do Sol,75,CV,1603040802,70,17.2,-25.09,86.0,8.05
43,Srednekolymsk,90,RU,1603041140,98,67.45,153.68,22.48,4.09
44,Georgetown,43,SH,1603040865,74,-7.93,-14.42,74.61,9.89
45,Avarua,50,CK,1603040993,88,-21.21,-159.78,69.8,4.7
46,Charagua,35,BO,1603041052,20,-19.8,-63.22,100.31,9.37
47,Lebu,0,CL,1603040800,61,-37.62,-73.65,55.53,7.99
48,Barrow,1,US,1603040930,79,71.29,-156.79,19.4,14.99
49,Ostrovnoy,65,RU,1603040931,87,68.05,39.51,34.39,13.51
50,Mantua,26,CU,1603040799,63,22.29,-84.28,87.08,8.41
51,Feira de Santana,73,BR,1603041200,62,-12.27,-38.97,82.24,13.4
52,Ribeira Grande,20,PT,1603041185,52,38.52,-28.7,64.4,11.41
53,Lavrentiya,93,RU,1603041200,90,65.58,-171.0,35.31,1.32
54,Newnan,1,US,1603041173,60,33.38,-84.8,70.0,9.17
55,Kamphaeng Phet,100,TH,1603041200,95,16.25,99.5,70.97,4.74
56,Katherine,75,AU,1603041200,66,-14.47,132.27,84.2,8.05
57,Kavieng,18,PG,1603040863,75,-2.57,150.8,82.0,10.45
58,Cape Town,20,ZA,1603040724,67,-33.93,18.42,64.0,16.11
59,Balakhninskiy,100,RU,1603041201,96,58.01,114.28,27.57,2.39
60,Xai-Xai,0,MZ,1603041201,56,-25.05,33.64,79.75,12.3
61,Hofn,75,IS,1603040994,70,64.25,-15.21,46.4,12.75
62,Tuy Hoa,100,VN,1603041201,87,13.08,109.3,77.0,6.22
63,Port Moresby,75,PG,1603040929,100,-9.44,147.18,77.0,6.93
64,Anchorage,90,US,1603041201,80,61.22,-149.9,32.0,3.36
65,Ushuaia,40,AR,1603040867,71,-54.8,-68.3,44.6,21.92
66,Morant Bay,75,JM,1603041201,83,17.88,-76.41,80.6,23.04
67,Thompson,75,CA,1603040722,100,55.74,-97.86,24.8,4.7
68,Faanui,21,PF,1603041201,83,-16.48,-151.75,78.66,9.31
69,Douentza,5,ML,1603041201,13,15.0,-2.95,100.8,9.91
70,Kaitangata,100,NZ,1603040994,91,-46.28,169.85,48.0,1.01
71,Pevek,16,RU,1603040993,94,69.7,170.31,23.56,16.98
72,Geraldton,1,AU,1603040803,88,-28.77,114.6,62.6,6.93
73,Khatanga,2,RU,1603040928,86,71.97,102.5,7.41,8.25
74,Taunggyi,64,MM,1603041202,94,20.78,97.03,59.99,1.88
75,Hobart,46,AU,1603040650,81,-42.88,147.33,48.2,6.93
76,Presov,62,SK,1603041202,80,49.17,21.25,46.0,3.18
77,Norman Wells,40,CA,1603041057,84,65.28,-126.83,6.8,5.82
78,Glasgow,1,US,1603041202,51,39.6,-75.75,64.99,8.05
79,Chui,0,UY,1603040799,47,-33.7,-53.46,77.45,7.27
80,Palmer,75,US,1603041057,54,42.16,-72.33,61.0,4.7
81,Victoria,20,SC,1603040702,69,-4.62,55.45,82.4,9.17
82,La Libertad,20,SV,1603041202,59,13.49,-89.32,89.6,3.36
83,Presidente Epitácio,53,BR,1603041202,25,-21.76,-52.12,96.66,4.34
84,East London,44,ZA,1603040613,68,-33.02,27.91,64.4,12.75
85,Kruisfontein,27,ZA,1603041202,72,-34.0,24.73,61.0,5.73
86,Hilo,75,US,1603040931,73,19.73,-155.09,71.6,6.93
87,Ullapool,100,GB,1603041202,72,57.9,-5.16,44.01,3.0
88,Ust-Kuyga,100,RU,1603041202,96,70.02,135.6,20.34,5.7
89,Dickinson,20,US,1603041043,65,29.46,-95.05,84.99,8.05
90,Tuusula,20,FI,1603041203,80,60.4,25.03,36.0,6.93
91,Luján,0,AR,1603041203,55,-34.57,-59.1,91.99,5.01
92,Lakes Entrance,64,AU,1603041203,87,-37.88,147.98,48.0,8.19
93,Mehamn,75,NO,1603041203,82,71.04,27.85,32.0,4.7
94,Kiama,66,AU,1603041203,93,-34.68,150.87,59.0,1.99
95,Bluff,100,NZ,1603040864,91,-46.6,168.33,46.99,1.01
96,Lahore,0,PK,1603041067,50,31.55,74.34,77.0,2.91
97,Lillesand,70,NO,1603041263,49,58.25,8.38,46.99,4.7
98,Yellowknife,90,CA,1603040799,92,62.46,-114.35,27.0,10.29
99,Hermanus,59,ZA,1603040799,68,-34.42,19.23,64.0,4.9
100,Chalchihuites,0,MX,1603041263,33,23.48,-103.88,68.72,6.24
101,Daru,99,PG,1603041264,85,-9.08,143.21,78.75,12.01
102,Quatre Cocos,40,MU,1603041264,69,-20.21,57.76,75.2,8.05
103,Vardø,40,NO,1603040867,74,70.37,31.11,37.4,16.11
104,Mersing,97,MY,1603041264,94,2.43,103.84,80.6,5.82
105,Svatove,0,UA,1603040993,62,49.41,38.15,53.8,8.63
106,Ewo,100,CG,1603041070,90,-0.87,14.82,75.0,3.33
107,North Bend,90,US,1603041264,100,43.41,-124.22,54.0,9.17
108,Conceição da Barra,58,BR,1603041264,59,-18.59,-39.73,79.5,10.92
109,Sitka,90,US,1603040643,60,57.05,-135.33,42.8,5.82
110,Petropavlovka,25,RU,1603041186,73,50.61,105.32,37.83,2.8
111,Isangel,3,VU,1603041264,71,-19.55,169.27,70.39,5.14
112,College,40,US,1603041264,78,64.86,-147.8,15.01,1.12
113,Beyneu,0,KZ,1603041264,27,45.32,55.2,61.72,13.67
114,Oneida,1,US,1603041265,35,43.2,-75.47,57.99,12.75
115,Saldanha,43,ZA,1603040801,59,-33.01,17.94,64.4,16.11
116,Byron Bay,90,AU,1603041265,93,-28.65,153.62,64.4,6.93
117,Bonavista,53,CA,1603041265,81,48.65,-53.11,51.01,5.01
118,Corner Brook,75,CA,1603041265,58,48.97,-57.95,53.6,11.41
119,Touros,75,BR,1603040994,74,-5.2,-35.46,82.4,20.8
120,Mahébourg,40,MU,1603040865,69,-20.41,57.7,75.2,9.17
121,Talnakh,75,RU,1603041265,92,69.49,88.4,17.6,13.42
122,São Filipe,45,CV,1603041265,78,14.9,-24.5,81.18,6.62
123,Port Elizabeth,28,ZA,1603040800,72,-33.92,25.57,64.4,14.99
124,Naze,90,JP,1603041265,94,28.37,129.48,75.2,23.04
125,Tiksi,100,RU,1603041123,96,71.69,128.87,18.63,18.41
126,Turbat,0,PK,1603041266,13,26.0,63.04,79.74,22.28
127,Carnarvon,90,AU,1603040802,83,-24.87,113.63,69.8,13.87
128,San Quintín,46,MX,1603041186,47,30.48,-115.95,79.72,11.16
129,Dhidhdhoo,93,MV,1603041266,78,6.88,73.1,82.74,12.3
130,Port Lincoln,1,AU,1603041266,79,-34.73,135.87,52.36,9.53
131,Morada Nova,80,BR,1603041177,15,-5.11,-38.37,101.82,7.52
132,Laguna,39,BR,1603041266,68,-28.48,-48.78,72.1,21.05
133,Kanniyākumāri,100,IN,1603041266,81,8.08,77.57,80.01,14.72
134,Zhicheng,6,CN,1603041266,86,30.3,111.5,54.0,3.15
135,Saurimo,32,AO,1603041266,58,-9.66,20.39,73.78,1.61
136,Sittwe,100,MM,1603041266,82,20.15,92.9,80.58,7.61
137,Bredasdorp,61,ZA,1603040803,72,-34.53,20.04,62.6,10.29
138,Saint-Joseph,15,RE,1603041267,73,-21.37,55.62,73.4,8.05
139,Shingū,58,JP,1603040863,75,33.73,135.98,58.84,4.97
140,Vila Franca do Campo,20,PT,1603041184,59,37.72,-25.43,62.6,14.99
141,Oddur,39,SO,1603041267,70,4.12,43.89,77.45,8.48
142,Port Alfred,50,ZA,1603040930,79,-33.59,26.89,63.0,9.95
143,Balfour,51,ZA,1603041267,31,-26.66,28.59,80.01,3.74
144,Marsá Maţrūḩ,18,EG,1603041267,47,31.35,27.25,80.6,5.82
145,Nikolskoye,90,RU,1603040993,95,59.7,30.79,36.0,4.47
146,Longyearbyen,40,SJ,1603041058,73,78.22,15.64,26.6,11.41
147,Nelson Bay,90,AU,1603041327,93,-32.72,152.15,62.01,18.34
148,Bambanglipuro,99,ID,1603041327,84,-7.95,110.28,77.63,8.5
149,Walvis Bay,0,NA,1603041328,72,-22.96,14.51,64.4,5.82
150,Road Town,40,VG,1603041224,70,18.42,-64.62,86.0,4.7
151,Kedrovyy,40,RU,1603041328,59,56.17,91.82,33.8,11.18
152,Albany,40,AU,1603040800,87,-35.02,117.89,55.4,6.93
153,Tasiilaq,30,GL,1603041057,74,65.61,-37.64,33.8,17.22
154,Provideniya,59,RU,1603040929,92,64.38,-173.3,33.71,5.19
155,Fes,38,MA,1603041205,16,34.04,-5.0,84.2,9.17
156,Krapina,40,HR,1603041328,87,46.16,15.88,54.0,1.12
157,Klaksvík,100,FO,1603041187,93,62.23,-6.59,39.2,6.93
158,Diego de Almagro,0,CL,1603041252,17,-26.37,-70.05,83.3,14.65
159,San Cristobal,75,EC,1603040802,83,-0.9,-89.62,75.2,10.29
160,Beringovskiy,69,RU,1603041060,85,63.05,179.32,34.38,5.79
161,Cabo San Lucas,5,MX,1603040936,74,22.89,-109.91,90.0,8.05
162,Vostok,1,RU,1603040929,94,46.49,135.88,22.87,3.22
163,San Bartolomé de Tirajana,20,ES,1603041329,73,27.92,-15.57,75.0,14.99
164,Garissa,18,KE,1603041329,44,-0.45,39.64,84.7,21.94
165,Iqaluit,90,CA,1603040929,95,63.75,-68.51,32.0,5.82
166,Comodoro Rivadavia,0,AR,1603041122,20,-45.87,-67.5,66.2,28.86
167,Olafsvik,68,IS,1603041329,75,64.89,-23.71,41.25,25.01
168,Juelsminde,65,DK,1603041329,70,55.71,10.02,46.4,8.05
169,Toppenish,1,US,1603041329,48,46.38,-120.31,60.8,5.82
170,Tazovsky,99,RU,1603041248,95,67.47,78.7,20.37,15.01
171,Asunción Nochixtlán,53,MX,1603041329,61,17.47,-97.23,66.15,5.41
172,Bar Harbor,1,US,1603041329,43,44.39,-68.2,55.99,5.82
173,Okhotsk,28,RU,1603041329,85,59.38,143.3,25.45,14.27
174,Chokurdakh,94,RU,1603041185,98,70.63,147.92,19.85,7.54
175,Puerto Ayora,75,EC,1603040801,73,-0.74,-90.35,75.2,11.41
176,Bullhead City,5,US,1603041185,14,35.15,-114.57,69.8,4.45
177,Buldāna,51,IN,1603041330,87,20.53,76.18,74.91,3.49
178,Griffith,0,AU,1603041330,76,-34.28,146.03,48.2,8.05
179,Slave Lake,90,CA,1603041330,67,55.28,-114.77,19.4,4.7
180,La Rioja,0,AR,1603041330,18,-29.41,-66.85,100.33,8.46
181,Nome,75,US,1603040643,80,64.5,-165.41,39.2,9.17
182,Armstrong,100,CA,1603041330,72,50.45,-119.2,37.99,5.01
183,Shakawe,0,BW,1603041330,14,-18.37,21.85,82.83,4.54
184,Myitkyina,100,MM,1603041330,81,25.38,97.4,74.93,1.16
185,Fort Nelson,5,CA,1603041330,92,58.81,-122.7,8.6,2.24
186,Mar del Plata,77,AR,1603040751,65,-38.0,-57.56,80.6,6.93
187,Alihe,0,CN,1603041331,91,50.57,123.72,30.49,2.35
188,Zhangye,0,CN,1603040865,48,38.93,100.45,43.65,2.3
189,Wakkanai,31,JP,1603041331,65,45.41,141.67,50.77,14.99
190,Arraial do Cabo,40,BR,1603040801,65,-22.97,-42.03,77.0,16.11
191,Martapura,90,ID,1603041331,100,-3.42,114.85,75.2,2.24
192,Bratsk,100,RU,1603041391,46,56.13,101.61,50.0,11.18
193,Tessalit,0,ML,1603041391,11,20.2,1.01,94.78,12.01
194,Ahipara,67,NZ,1603040903,93,-35.17,173.17,55.65,6.29
195,Margate,53,ZA,1603041391,78,-30.86,30.37,70.07,19.48
196,Grindavik,40,IS,1603041122,87,63.84,-22.43,42.8,25.28
197,Atuona,18,PF,1603040866,76,-9.8,-139.03,77.77,18.92
198,El Cobre,40,CU,1603041391,66,20.05,-75.95,86.0,4.7
199,Warri,84,NG,1603041392,76,5.52,5.75,81.36,6.93
200,Pemangkat,100,ID,1603040863,82,1.17,108.97,78.87,4.16
201,Oranjemund,0,NA,1603041392,75,-28.55,16.43,60.48,16.93
202,Peace River,90,CA,1603041252,61,56.25,-117.29,17.6,8.05
203,Jiexiu,88,CN,1603041392,40,37.02,111.91,53.89,1.97
204,Kenai,90,US,1603040865,96,60.55,-151.26,32.0,6.93
205,Northam,7,AU,1603041392,77,-31.67,116.67,60.01,2.24
206,Whitianga,60,NZ,1603041392,95,-36.83,175.7,57.99,1.99
207,Chongwe,2,ZM,1603041392,20,-15.33,28.68,74.95,5.82
208,Verāval,20,IN,1603041392,84,20.9,70.37,82.44,7.74
209,Mbouda,92,CM,1603041393,84,5.63,10.26,66.11,1.77
210,Bria,84,CF,1603041393,73,6.54,21.99,76.03,1.81
211,Idlib,40,SY,1603041393,69,35.93,36.63,77.0,12.75
212,Saskylakh,97,RU,1603040802,97,71.92,114.08,19.18,5.37
213,Thinadhoo,84,MV,1603041121,77,0.53,72.93,83.77,16.49
214,Pacific Grove,1,US,1603041329,55,36.62,-121.92,68.0,0.87
215,Sembakung,100,ID,1603041393,96,3.82,117.25,75.34,2.04
216,Maniitsoq,100,GL,1603040993,75,65.42,-52.9,44.62,10.6
217,Aklavik,20,CA,1603041393,92,68.22,-135.01,8.6,3.36
218,Fairbanks,40,US,1603041302,78,64.84,-147.72,15.01,1.28
219,Šurany,67,SK,1603041393,73,48.09,18.18,52.0,5.53
220,Nova Olinda do Norte,53,BR,1603041394,38,-3.89,-59.09,96.8,4.14
221,Westport,77,IE,1603041394,87,53.8,-9.52,53.01,5.48
222,Iwaki,14,JP,1603041394,98,37.05,140.88,52.0,5.26
223,Carahue,75,CL,1603041394,48,-38.7,-73.17,60.8,8.05
224,Vagay,58,RU,1603041394,96,57.94,69.02,31.14,6.42
225,Weihai,0,CN,1603041394,66,37.5,122.11,59.85,5.93
226,Pauini,78,BR,1603041394,38,-7.71,-66.98,96.76,2.77
227,Chokwé,0,MZ,1603041394,31,-24.53,32.98,87.94,7.65
228,Karratha,0,AU,1603040993,72,-20.74,116.85,68.04,13.4
229,Zhezkazgan,0,KZ,1603040929,49,47.8,67.71,49.03,13.27
230,Biak,96,ID,1603041315,79,-0.91,122.88,76.82,4.9
231,Dvinskoy Bereznik,100,RU,1603041394,98,62.86,42.71,32.4,8.99
232,Bafra,75,TR,1603041394,73,41.57,35.91,71.6,4.7
233,Constitución,0,CL,1603041394,56,-35.33,-72.42,60.19,15.86
234,San José,48,GT,1603041395,56,16.98,-89.9,88.81,0.89
235,Tarbagatay,37,RU,1603041395,86,51.48,107.36,30.2,4.47
236,Yershichi,100,RU,1603041395,79,53.67,32.75,39.87,11.59
237,Kavaratti,1,IN,1603041380,77,10.57,72.64,81.45,10.67
238,Nushki,0,PK,1603041395,44,29.55,66.02,51.03,1.19
239,Kahului,40,US,1603041059,83,20.89,-156.47,75.2,6.93
240,Kāmyārān,0,IR,1603041395,4,34.8,46.94,64.4,4.7
241,Ilulissat,99,GL,1603041395,60,69.22,-51.1,39.2,12.75
242,Bilisht,34,AL,1603041455,59,40.63,20.99,50.94,2.55
243,Aleksandrovskoye,4,RU,1603041455,59,44.71,43.0,60.8,2.24
244,Hasaki,40,JP,1603040995,87,35.73,140.83,55.4,5.82
245,El Hatillo,26,VE,1603041455,55,10.43,-66.82,82.99,3.0
246,Nerchinskiy Zavod,4,RU,1603041455,96,51.31,119.61,29.59,2.77
247,Nānākuli,40,US,1603041316,88,21.39,-158.15,77.0,5.64
248,Korla,0,CN,1603041456,47,41.76,86.15,48.29,1.88
249,Bundaberg,34,AU,1603041456,88,-24.85,152.35,66.99,5.82
250,Suruç,3,TR,1603041456,30,36.98,38.42,69.8,3.36
251,Mount Vernon,75,US,1603041456,45,40.91,-73.84,64.4,13.87
252,Nālūt,65,LY,1603041456,45,30.33,10.85,71.33,12.06
253,Hadejia,1,NG,1603041456,16,12.45,10.04,93.11,5.79
254,Calvinia,1,ZA,1603041456,25,-31.47,19.78,68.85,6.69
255,Bambous Virieux,40,MU,1603041456,69,-20.34,57.76,75.2,8.05
256,Hervey Bay,53,AU,1603041058,88,-25.3,152.85,68.0,5.82
257,Gazojak,0,TM,1603041456,26,41.19,61.4,61.74,9.98
258,Henties Bay,2,NA,1603041456,87,-22.12,14.28,61.0,3.0
259,Haines Junction,79,CA,1603041456,81,60.75,-137.51,19.44,0.96
260,Uglovskoye,0,RU,1603041457,77,51.36,80.19,35.56,8.12
261,Lompoc,1,US,1603041222,67,34.64,-120.46,66.2,6.02
262,Castro,75,CL,1603040867,71,-42.47,-73.77,55.0,19.46
263,Nuuk,40,GL,1603041312,81,64.18,-51.72,44.6,4.7
264,Necochea,43,AR,1603041457,63,-38.55,-58.74,69.6,11.65
265,Hambantota,63,LK,1603041060,77,6.12,81.12,79.5,16.42
266,Progreso,75,MX,1603041457,74,21.28,-89.67,88.0,5.82
267,Lafiagi,42,NG,1603041457,62,8.87,5.42,85.6,2.51
268,Kuala Terengganu,40,MY,1603041457,94,5.33,103.14,77.0,4.7
269,Inuvik,20,CA,1603041188,84,68.35,-133.72,6.8,6.93
270,Río Gallegos,75,AR,1603040992,30,-51.62,-69.22,53.6,23.04
271,Coquimbo,90,CL,1603041124,82,-29.95,-71.34,57.2,10.29
272,Baghdad,0,IQ,1603041244,26,33.34,44.4,78.8,5.82
273,Pyshma,100,RU,1603041457,82,56.95,63.25,36.07,9.28
274,Vila Velha,75,BR,1603041458,69,-20.33,-40.29,78.01,6.93
275,Ixtapa,75,MX,1603041458,70,20.7,-105.2,86.0,3.11
276,Lebedyn,40,UA,1603041458,76,50.59,34.48,43.74,6.51
277,Zhalantun,71,CN,1603041458,75,48.0,122.72,36.07,4.16
278,Nhulunbuy,40,AU,1603041458,88,-12.23,136.77,73.4,5.84
279,Mitú,74,CO,1603041378,42,1.2,-70.17,96.28,0.51
280,Vanimo,100,PG,1603041458,84,-2.67,141.3,78.24,3.58
281,Wuwei,0,CN,1603041458,49,37.93,102.64,46.0,2.13
282,Kariba,36,ZW,1603041458,26,-16.52,28.8,83.3,3.65
283,Saint George,40,BM,1603040931,69,32.38,-64.68,82.4,18.34
284,Manbij,10,SY,1603041458,45,36.53,37.95,64.4,4.56
285,Inhambane,0,MZ,1603041458,69,-23.86,35.38,75.2,11.41
286,Goianápolis,55,BR,1603041383,41,-16.51,-49.02,91.4,11.41
287,Nanortalik,86,GL,1603040867,93,60.14,-45.24,41.0,6.22
288,Poum,0,NC,1603041380,72,-20.23,164.02,73.24,17.31
289,Saint Paul Harbor,75,US,1603040710,75,57.79,-152.41,42.8,8.05
290,Zambezi,0,ZM,1603041459,18,-13.54,23.1,80.13,6.76
291,Tuatapere,100,NZ,1603040866,91,-46.13,167.68,46.99,1.01
292,Atherton,63,AU,1603041519,88,-17.27,145.48,69.01,1.12
293,Hamina,76,FI,1603041519,72,60.57,27.2,35.6,4.7
294,Souillac,40,MU,1603041059,69,-20.52,57.52,75.2,8.05
295,Quryq,0,KZ,1603041519,29,43.2,51.65,64.0,12.15
296,Kununurra,35,AU,1603041519,78,-15.77,128.73,82.4,1.12
297,Northglenn,90,US,1603041519,100,39.89,-104.99,37.99,5.82
298,Nantucket,1,US,1603041369,54,41.28,-70.1,59.0,10.29
299,Sungai Besar,20,MY,1603041519,94,3.67,100.99,80.6,5.17
300,Roebourne,0,AU,1603041519,73,-20.78,117.13,68.49,14.09
301,Mount Gambier,90,AU,1603041519,93,-37.83,140.77,48.2,6.93
302,Abu Dhabi,0,AE,1603041520,51,24.47,54.37,86.0,8.05
303,Kernersville,20,US,1603041270,54,36.12,-80.07,62.01,5.82
304,Hamilton,40,BM,1603040932,69,32.29,-64.78,82.4,18.34
305,Richards Bay,18,ZA,1603041185,84,-28.78,32.04,73.06,9.93
306,Akureyri,90,IS,1603041520,93,65.68,-18.09,41.0,17.22
307,Pundaguitan,95,PH,1603041520,73,6.37,126.17,82.45,3.6
308,Kidal,0,ML,1603041520,9,18.44,1.41,98.6,2.39
309,Divnomorskoye,96,RU,1603041520,85,44.5,38.14,61.48,7.07
310,Marivan,0,IR,1603041520,44,35.52,46.18,52.84,0.43
311,Pochutla,20,MX,1603041520,55,15.74,-96.47,91.0,4.16
312,Caravelas,53,BR,1603041251,67,-17.71,-39.25,78.3,11.32
313,Saint-Philippe,27,RE,1603040994,78,-21.36,55.77,75.2,11.41
314,Warin Chamrap,90,TH,1603041520,100,15.19,104.86,73.4,6.78
315,Strezhevoy,76,RU,1603041443,74,60.73,77.59,30.2,11.18
316,Qaqortoq,63,GL,1603041520,96,60.72,-46.03,41.0,3.36
317,Lipin Bor,100,RU,1603041521,96,60.26,37.98,35.01,6.44
318,Maceió,75,BR,1603041224,58,-9.67,-35.74,84.2,11.41
319,Seoul,1,KR,1603041521,93,37.57,126.98,50.0,1.36
320,Key Largo,3,US,1603041521,74,25.09,-80.45,87.01,5.99
321,Pilar,20,PH,1603041521,78,14.66,120.57,80.6,3.36
322,Laurel,40,US,1603041521,51,39.1,-76.85,64.99,8.05
323,Zeya,80,RU,1603041379,88,53.75,127.27,22.37,2.42
324,Neryungri,1,RU,1603041521,89,56.67,124.65,6.93,1.88
325,Rexburg,90,US,1603041404,42,43.83,-111.79,52.0,21.92
326,Brae,75,GB,1603041521,75,60.4,-1.35,42.8,3.36
327,Weiz,60,AT,1603041521,86,47.22,15.62,50.0,0.11
328,Vanavara,100,RU,1603041521,94,60.34,102.28,38.91,9.08
329,Aripuanã,91,BR,1603041522,38,-9.17,-60.63,95.52,1.28
330,Tura,100,RU,1603041522,99,64.28,100.25,29.95,3.91
331,Kokopo,96,PG,1603041522,85,-4.35,152.26,77.22,2.15
332,Shāhpur,100,IN,1603041522,75,16.7,76.83,78.58,2.42
333,Kizema,100,RU,1603041522,94,61.11,44.83,34.83,6.91
334,Siilinjärvi,90,FI,1603041522,100,63.08,27.67,35.6,2.24
335,Mao,0,TD,1603041522,10,14.12,15.31,97.36,11.5
336,Acaraú,83,BR,1603041123,49,-2.89,-40.12,87.71,21.09
337,Suzun,28,RU,1603041522,85,53.78,82.31,34.16,8.81
338,Bandarbeyla,0,SO,1603041522,79,9.49,50.81,80.31,5.55
339,Conde,75,BR,1603041522,62,-7.26,-34.91,84.2,14.99
340,Morondava,0,MG,1603041522,83,-20.28,44.28,77.34,7.43
341,Bukama,46,CD,1603041523,37,-9.2,25.85,84.56,2.55
342,Visnes,20,NO,1603041583,70,59.36,5.22,44.6,17.22
343,Esperance,94,AU,1603040994,87,-33.87,121.9,55.4,9.17
344,Svetlogorsk,40,RU,1603041186,70,54.94,20.15,48.99,11.18
345,Bilma,0,NE,1603041250,11,18.69,12.92,90.41,6.17
346,Onguday,98,RU,1603041583,90,50.75,86.15,33.6,8.75
347,Fortuna,1,US,1603041583,100,40.6,-124.16,53.6,6.24
348,Ayan,99,RU,1603041583,85,56.45,138.17,27.1,20.49
349,La Oroya,66,PE,1603041583,41,-11.52,-75.9,57.34,5.82
350,Tual,97,ID,1603041584,83,-5.67,132.75,80.33,13.56
351,Flinders,70,AU,1603041248,84,-34.58,150.86,59.0,1.99
352,Tamiahua,0,MX,1603041584,72,21.27,-97.45,81.82,1.16
353,Pueblo Nuevo,0,MX,1603041584,38,23.38,-105.38,77.83,0.47
354,Tigil',100,RU,1603041584,85,57.8,158.67,36.3,10.0
355,Kaseda-shirakame,30,JP,1603041584,87,31.42,130.32,59.0,1.99
356,Camopi,74,GF,1603041487,36,3.17,-52.32,95.92,4.81
357,Benito Juarez,5,MX,1603041502,52,19.39,-99.17,69.01,3.04
358,Shuyskoye,100,RU,1603041584,98,59.37,41.03,39.13,4.03
359,Kamenka,14,RU,1603041379,67,51.32,42.77,55.0,10.74
360,Rundu,0,NA,1603041584,12,-17.93,19.77,84.31,7.14
361,Jerécuaro,5,MX,1603041584,53,20.15,-100.52,73.99,3.36
362,Uri,0,IN,1603041584,40,34.08,74.03,55.44,3.09
363,Sabha,83,LY,1603041585,13,27.04,14.43,86.79,6.13
364,Davila,18,PH,1603041585,79,18.47,120.58,81.03,19.37
365,Ancud,75,CL,1603041585,71,-41.87,-73.82,55.0,19.46
366,Rocha,14,UY,1603041585,63,-34.48,-54.33,82.02,9.44
367,Srandakan,99,ID,1603041585,85,-7.94,110.25,77.7,8.34
368,Panama City,75,US,1603041585,65,30.16,-85.66,81.0,8.05
369,Peterhead,90,GB,1603041585,81,57.51,-1.8,45.0,6.93
370,Narasannapeta,86,IN,1603041317,86,18.42,84.05,80.29,6.2
371,Bela,23,PK,1603041585,17,26.23,66.31,86.18,1.77
372,Liberal,90,US,1603041585,74,37.04,-100.92,37.4,18.34
373,Šibenik,0,HR,1603041585,55,43.73,15.91,60.8,13.87
374,Los Llanos de Aridane,20,ES,1603041313,69,28.66,-17.92,77.0,18.34
375,Gloucester,47,US,1603041586,52,42.62,-70.66,59.0,4.0
376,Kishtwār,0,IN,1603041586,40,33.32,75.77,53.37,3.67
377,Polunochnoye,100,RU,1603041586,94,60.87,60.42,29.07,4.54
378,Honiara,20,SB,1603041074,100,-9.43,159.95,75.2,2.24
379,Beberibe,56,BR,1603041586,58,-4.18,-38.13,86.0,20.8
380,Kouango,68,CF,1603041586,90,4.99,19.96,75.83,2.95
381,Agvali,0,RU,1603041586,40,42.54,46.12,59.4,4.7
382,Milton,8,CA,1603041586,47,44.07,-64.75,61.0,3.0
383,Bagdarin,86,RU,1603041586,96,54.43,113.6,31.15,3.2
384,Boa Vista,40,BR,1603041587,39,2.82,-60.67,95.0,8.05
385,Tigzirt,0,DZ,1603041587,60,36.89,4.12,65.68,5.91
386,Terra Roxa,85,BR,1603041587,71,-23.86,-50.03,80.01,5.01
387,Bengkulu,88,ID,1603041249,89,-3.8,102.27,75.76,7.56
388,Mossamedes,28,AO,1603041059,72,-15.2,12.15,70.88,9.86
389,Olbernhau,76,DE,1603041587,79,50.67,13.33,48.0,8.72
390,Bubaque,2,GW,1603041587,80,11.28,-15.83,83.12,9.51
391,Izhma,95,RU,1603041587,98,65.01,53.91,29.37,3.47
392,Cabatuan,100,PH,1603041647,88,10.88,122.49,76.73,7.18
393,Luanda,40,AO,1603041354,83,-8.84,13.23,77.0,8.05
394,Aracaju,20,BR,1603041647,58,-10.91,-37.07,84.2,11.41
395,Nokaneng,0,BW,1603041647,13,-19.67,22.27,84.72,6.91
396,Havre-St-Pierre,1,CA,1603041648,65,50.23,-63.6,46.4,23.04
397,Orange,1,AU,1603041648,84,-33.28,149.1,43.0,2.84
398,Wilmington,1,US,1603041540,57,34.23,-77.94,75.2,5.82
399,Harrison,1,US,1603041601,57,30.41,-89.04,80.6,13.87
400,Jamestown,1,US,1603041539,43,42.1,-79.24,57.99,13.87
401,Yazd,0,IR,1603041648,6,31.9,54.37,60.8,6.93
402,Angoche,1,MZ,1603041648,77,-16.23,39.91,74.66,8.93
403,Viedma,3,AR,1603041023,15,-40.81,-63.0,79.0,8.01
404,Loreto,19,MX,1603041648,34,22.27,-101.97,71.38,4.85
405,Manokwari,100,ID,1603041648,75,-0.87,134.08,80.67,3.94
406,Imeni Poliny Osipenko,8,RU,1603041648,78,52.42,136.49,27.21,9.42
407,Severo-Yeniseyskiy,99,RU,1603041648,96,60.37,93.04,25.29,16.69
408,Prado,24,BR,1603041648,72,-17.34,-39.22,77.2,12.3
409,Yashkino,40,RU,1603041649,93,55.87,85.43,32.0,11.18
410,Sinnamary,52,GF,1603041380,59,5.38,-52.95,87.58,10.16
411,Shestakovo,100,RU,1603041378,81,56.49,103.96,43.0,8.77
412,Dubbo,0,AU,1603041534,93,-32.25,148.62,44.6,1.12
413,Santiago del Estero,0,AR,1603041649,20,-27.8,-64.26,104.04,16.17
414,Miles City,90,US,1603041649,54,46.41,-105.84,28.4,2.8
415,Obo,50,CF,1603041649,94,5.4,26.49,70.88,2.19
416,Kutum,0,SD,1603041609,15,14.2,24.67,83.12,8.23
417,Roxana,68,CR,1603041649,51,10.28,-83.75,82.0,6.93
418,Wuzhou,65,CN,1603041649,83,23.48,111.32,62.35,4.32
419,Kolda,0,SN,1603041649,43,12.88,-14.95,96.31,4.23
420,Kudahuvadhoo,31,MV,1603041121,78,2.67,72.89,83.08,14.52
421,Mayor Pablo Lagerenza,16,PY,1603041315,24,-19.93,-60.77,102.81,10.18
422,Masuguru,22,TZ,1603041650,30,-11.37,38.42,88.09,5.06
423,Batemans Bay,83,AU,1603041650,72,-35.72,150.18,55.99,3.65
424,Port Augusta,0,AU,1603041124,81,-32.5,137.77,53.6,8.05
425,Ambilobe,20,MG,1603041650,69,-13.2,49.05,74.62,1.88
426,Camacha,40,PT,1603041650,88,33.08,-16.33,71.6,16.11
427,Lagoa,61,PT,1603041185,62,39.05,-27.98,62.51,15.32
428,Severo-Kuril'sk,31,RU,1603041650,81,50.68,156.12,45.48,10.92
429,Bairiki Village,20,KI,1603041650,74,1.33,172.98,80.6,10.29
430,DeKalb County,20,US,1603041650,52,33.75,-84.23,68.0,6.85
431,Aksu,0,CN,1603041650,42,41.12,80.26,52.18,0.69
432,Inírida,48,CO,1603041444,55,3.87,-67.92,91.27,1.9
433,Rocky Mount,20,US,1603041650,60,35.94,-77.79,69.8,6.93
434,Arrecife,20,ES,1603041651,73,28.96,-13.55,71.6,5.82
435,Buala,89,SB,1603041651,77,-8.14,159.59,80.08,1.72
436,Chabahar,20,IR,1603041651,44,25.29,60.64,77.0,9.17
437,Dryden,90,CA,1603041651,86,49.78,-92.75,28.4,10.29
438,Guerrero Negro,4,MX,1603041372,52,27.98,-114.06,79.36,7.56
439,Dunedin,100,NZ,1603041651,91,-45.87,170.5,48.0,2.62
440,Sibolga,99,ID,1603041651,75,1.74,98.78,78.01,3.11
441,Lorengau,26,PG,1603041711,78,-2.02,147.27,81.9,7.92
442,Umba,100,RU,1603041711,94,66.69,34.34,38.08,14.52
443,Azare,22,NG,1603041711,25,11.68,10.19,88.02,3.09
444,Kindu,75,CD,1603041711,94,-2.95,25.95,72.37,2.64
445,Vranjska Banja,0,RS,1603041711,77,42.55,21.99,46.99,1.01
446,Gashua,0,NG,1603041712,12,12.87,11.05,95.23,4.68
447,Sheridan,90,US,1603041712,79,44.83,-106.92,26.01,4.7
448,Kefamenanu,56,ID,1603041712,89,-9.45,124.48,71.22,1.66
449,Sur,0,OM,1603041712,27,22.57,59.53,84.07,12.21
450,Jiuquan,12,CN,1603041443,50,39.74,98.52,41.02,2.75
451,Mgachi,3,RU,1603041712,81,51.05,142.27,33.71,18.57
452,Ocher,100,RU,1603041712,94,57.89,54.72,34.18,14.43
453,Janaúba,45,BR,1603041568,35,-15.8,-43.31,89.53,8.28
454,Turochak,100,RU,1603041712,83,52.26,87.12,35.76,7.54
455,Kirakira,90,SB,1603041712,82,-10.45,161.92,79.23,6.96
456,Brownsville,75,US,1603041712,58,25.9,-97.5,88.0,11.41
457,Kangaatsiaq,100,GL,1603041713,76,68.31,-53.46,38.48,23.67
458,Tarrafal,9,CV,1603041713,79,15.28,-23.77,84.2,9.17
459,Portland,40,AU,1603041713,89,-38.33,141.6,49.1,5.86
460,Shimoda,56,JP,1603041250,73,34.67,138.95,55.0,8.81
461,Severobaykal'sk,100,RU,1603041713,79,55.65,109.32,39.24,3.78
462,Bānswāra,69,IN,1603041713,63,23.55,74.45,84.15,2.01
463,Fereydūnkenār,0,IR,1603041713,49,36.69,52.52,70.29,5.39
464,Leningradskiy,0,RU,1603041713,86,69.38,178.42,21.88,6.06
465,Lerwick,75,GB,1603041713,75,60.15,-1.15,42.8,3.36
466,Noumea,1,NC,1603041713,72,-22.28,166.46,70.0,6.93
467,Bolívar,92,CO,1603041713,56,4.34,-76.18,83.5,1.32
468,Axum,41,ET,1603041713,47,14.12,38.72,63.81,4.88
469,Tezze sul Brenta,3,IT,1603041713,79,45.69,11.7,57.0,1.63
470,Sambava,0,MG,1603041714,77,-14.27,50.17,74.53,12.28
471,Tchibanga,97,GA,1603041714,92,-2.85,11.03,75.16,5.39
472,Peniche,51,PT,1603041575,62,39.36,-9.38,68.0,3.0
473,Bam,0,IR,1603041714,21,29.11,58.36,60.21,8.23
474,Chowchilla,1,US,1603041714,46,37.12,-120.26,73.4,5.82
475,Tilichiki,92,RU,1603041714,88,60.47,166.1,34.21,5.5
476,Tegul'det,91,RU,1603041714,92,57.31,88.17,31.78,14.72
477,Agüimes,20,ES,1603041714,73,27.91,-15.45,75.0,14.99
478,Virginia Beach,51,US,1603041663,66,36.85,-75.98,71.01,3.0
479,Suba,100,PH,1603041714,77,10.84,121.01,84.2,18.21
480,Baracoa,100,CU,1603041714,81,20.35,-74.5,78.53,1.5
481,Tebingtinggi,20,ID,1603041715,100,3.33,99.16,78.8,2.75
482,Dingzhou,10,CN,1603041715,81,38.51,115.0,46.4,3.02
483,Sharlyk,100,RU,1603041715,52,52.92,54.75,47.17,13.22
484,Seymchan,96,RU,1603041715,85,62.88,152.43,22.17,2.55
485,Grimshaw,90,CA,1603041715,61,56.18,-117.6,17.6,2.24
486,Montorio al Vomano,61,IT,1603041715,46,42.58,13.64,55.99,3.0
487,Bilibino,98,RU,1603041715,94,68.05,166.44,14.94,2.62
488,Adrar,0,DZ,1603041715,12,25.75,-1.0,87.91,8.46
489,Sehwan,91,PK,1603041715,54,26.43,67.86,80.6,4.7
490,San Rafael,0,AR,1603041715,22,-34.62,-68.33,79.36,14.14
491,Hundested,67,DK,1603041715,72,55.97,11.87,46.99,4.0
492,Dawson Creek,1,CA,1603041776,85,55.77,-120.24,12.2,2.24
493,Kabanjahe,20,ID,1603041776,100,3.1,98.49,78.8,3.53
494,São José da Coroa Grande,38,BR,1603041776,65,-8.9,-35.15,80.35,12.15
495,Rieti,19,IT,1603041776,71,42.41,12.86,55.99,1.12
496,Bijie,100,CN,1603041776,90,27.31,105.29,47.75,3.09
497,Colorines,5,MX,1603041776,45,19.2,-100.17,73.99,4.68
498,Tamalameque,100,CO,1603041776,66,8.85,-73.81,88.11,2.04
499,Carutapera,65,BR,1603041616,58,-1.2,-46.02,87.03,10.4
500,Fethiye,75,TR,1603041776,83,36.62,29.12,75.2,5.84
501,Piracuruca,82,BR,1603041776,18,-3.93,-41.71,103.98,1.72
502,Makakilo City,90,US,1603041776,83,21.35,-158.09,78.8,5.23
503,Launceston,1,AU,1603041776,93,-41.45,147.17,42.01,4.7
504,Forbes,0,AU,1603041777,78,-33.38,148.02,50.0,3.83
505,Havelock,37,US,1603041599,78,34.88,-76.9,75.0,7.72
506,Ponta Delgada,20,PT,1603041777,52,37.73,-25.67,64.4,14.99
507,Bariloche,20,AR,1603041777,37,-41.15,-71.31,53.6,34.45
508,Ketchikan,40,US,1603041317,93,55.34,-131.65,46.4,3.0
509,Pedra Branca,94,BR,1603041777,19,-5.45,-39.72,96.89,7.31
510,Belmonte,75,BR,1603041777,69,-15.86,-38.88,78.8,9.17
511,Pangnirtung,90,CA,1603041777,56,66.15,-65.71,44.6,14.99
512,Alta Floresta,61,BR,1603041777,27,-9.88,-56.09,99.18,2.48
513,Maua,9,KE,1603041777,53,0.23,37.94,68.61,5.77
514,Ust'-Omchug,89,RU,1603041777,94,61.15,149.63,19.72,1.7
515,Thaba-Tseka,50,LS,1603041778,25,-29.52,28.61,65.89,9.4
516,Nara,11,ML,1603041778,12,15.17,-7.29,101.32,15.03
517,Āsbe Teferī,2,ET,1603041778,45,9.08,40.87,63.09,3.18
518,Pringsewu,31,ID,1603041778,93,-5.36,104.97,74.44,2.77
519,Mariënburg,43,SR,1603041778,65,5.85,-55.02,93.0,5.99
520,Clyde River,20,CA,1603041581,85,70.47,-68.59,21.2,4.7
521,Sisimiut,100,GL,1603041778,65,66.94,-53.67,42.64,17.78
522,Yulara,90,AU,1603041380,88,-25.24,130.99,68.0,13.87
523,Eydhafushi,44,MV,1603041778,75,5.1,73.07,83.12,12.44
524,Saint-Max,90,FR,1603041778,71,48.7,6.21,53.6,1.12
