City ID,City,Cloudiness,Country,Date,Humidity,Lat,Lng,Max Temp,Wind Speed
0,Bluff,93,NZ,1603217426,92,-46.6,168.33,41.0,1.99
1,São João da Barra,75,BR,1603217426,65,-21.64,-41.05,78.8,16.11
2,Ushuaia,40,AR,1603217130,60,-54.8,-68.3,42.8,20.8
3,Ponta do Sol,18,CV,1603217426,52,17.2,-25.09,89.6,20.8
4,High Level,40,CA,1603217366,100,58.52,-117.14,12.2,2.24
5,Victoria,20,SC,1603217173,74,-4.62,55.45,82.4,5.82
6,La Ronge,90,CA,1603217141,63,55.1,-105.28,26.6,3.36
7,Nerchinskiy Zavod,100,RU,1603217426,97,51.31,119.61,31.6,3.6
8,Vrangel',1,RU,1603217426,84,42.73,133.08,53.74,5.48
9,Souillac,20,MU,1603217135,73,-20.52,57.52,75.2,11.41
10,Sfântu Gheorghe,0,RO,1603217302,84,45.87,25.78,43.0,1.77
11,Komsomol'skiy,96,RU,1603217426,60,43.98,46.7,55.35,3.2
12,Albany,90,AU,1603217427,87,-35.02,117.89,57.2,5.82
13,Raudeberg,75,NO,1603217427,87,61.99,5.14,44.6,18.34
14,Vaini,40,TO,1603217427,77,-21.2,-175.2,69.8,9.17
15,Nikolskoye,75,RU,1603217152,89,59.7,30.79,37.0,4.47
16,Hermanus,0,ZA,1603217427,72,-34.42,19.23,57.0,5.01
17,Qaanaaq,0,GL,1603217134,84,77.48,-69.36,22.08,7.38
18,Prince Rupert,90,CA,1603217398,93,54.32,-130.32,42.8,8.05
19,New Norfolk,100,AU,1603217428,70,-42.78,147.06,51.01,1.01
20,Kerema,100,PG,1603217428,87,-7.96,145.78,77.92,5.01
21,Songkhla,75,TH,1603217428,100,6.83,100.67,78.8,0.67
22,Havøysund,75,NO,1603217150,77,71.0,24.66,32.0,4.7
23,Leningradskiy,89,RU,1603217160,89,69.38,178.42,33.08,10.8
24,Chui,97,UY,1603217428,80,-33.7,-53.46,55.87,16.4
25,Óbidos,69,BR,1603217428,37,-1.92,-55.52,96.17,9.06
26,Adrar,0,DZ,1603217429,24,25.75,-1.0,80.33,7.9
27,Te Anau,27,NZ,1603217353,90,-45.42,167.72,34.07,1.05
28,Hilo,20,US,1603217394,68,19.73,-155.09,77.0,9.17
29,Clyde River,1,CA,1603217429,88,70.47,-68.59,32.0,21.92
30,Punta Arenas,75,CL,1603217401,45,-53.15,-70.92,48.2,20.8
31,Talnakh,75,RU,1603217429,84,69.49,88.4,8.6,4.47
32,Bethel,90,US,1603217429,88,41.37,-73.41,68.0,6.93
33,Skellefteå,75,SE,1603217429,100,64.75,20.95,23.0,3.36
34,Newport,90,US,1603217429,93,41.49,-71.31,64.0,8.05
35,Pangnirtung,90,CA,1603217269,68,66.15,-65.71,30.2,6.29
36,Thompson,90,CA,1603217153,68,55.74,-97.86,28.4,3.36
37,Praia,99,CV,1603217186,59,14.92,-23.51,89.6,13.87
38,Dunedin,100,NZ,1603217430,86,-45.87,170.5,48.0,4.94
39,Margate,80,ZA,1603217430,66,-30.86,30.37,68.18,13.33
40,Chokurdakh,96,RU,1603217136,97,70.63,147.92,13.96,2.08
41,Cape Town,0,ZA,1603217430,62,-33.93,18.42,60.01,14.99
42,Pitimbu,40,BR,1603217430,55,-7.47,-34.81,86.0,14.99
43,Waddān,7,LY,1603217159,42,29.16,16.14,71.55,10.42
44,Hithadhoo,81,MV,1603217200,76,-0.6,73.08,83.07,10.25
45,Pogar,82,RU,1603217430,74,52.55,33.26,40.32,9.1
46,Bredasdorp,0,ZA,1603217202,62,-34.53,20.04,59.0,12.75
47,Lagoa,28,PT,1603217285,67,39.05,-27.98,63.54,27.42
48,Arman',20,RU,1603217430,84,59.7,150.17,27.52,5.23
49,Luba,75,GQ,1603217431,94,3.46,8.55,78.8,4.7
50,Nago,1,JP,1603217491,78,26.59,127.98,78.8,14.99
51,Khatanga,83,RU,1603217491,95,71.97,102.5,7.83,7.83
52,Yellowknife,75,CA,1603217491,79,62.46,-114.35,27.0,2.24
53,Butaritari,93,KI,1603217492,72,3.07,172.79,82.17,8.55
54,Castro,38,CL,1603217492,45,-42.47,-73.77,53.6,8.05
55,Atuona,8,PF,1603217218,74,-9.8,-139.03,77.43,19.57
56,Cururupu,99,BR,1603217492,58,-1.83,-44.87,86.83,9.33
57,Port Alfred,77,ZA,1603217493,69,-33.59,26.89,60.94,15.05
58,Erenhot,87,CN,1603217493,76,43.65,111.98,31.62,22.57
59,Rikitea,3,PF,1603217493,80,-23.12,-134.97,73.27,13.65
60,Avarua,19,CK,1603217493,100,-21.21,-159.78,73.4,3.36
61,Kupang,92,ID,1603217364,80,-10.17,123.58,78.98,3.87
62,Meulaboh,24,ID,1603217494,84,4.14,96.13,77.86,4.16
63,Yuci,84,CN,1603217494,75,37.68,112.73,44.6,2.24
64,Saint-Leu,29,RE,1603217494,78,-21.15,55.28,73.4,6.29
65,Altay,0,CN,1603217494,66,47.87,88.12,35.98,4.09
66,Dingle,90,IE,1603217494,87,52.14,-10.27,55.4,12.75
67,Koshurnikovo,100,RU,1603217494,100,54.17,93.3,29.41,2.91
68,Opuwo,8,NA,1603217495,20,-18.06,13.84,77.95,10.51
69,Slave Lake,1,CA,1603217495,73,55.28,-114.77,23.0,2.24
70,Trivandrum,20,IN,1603217495,83,8.48,76.92,80.6,2.24
71,Naze,75,JP,1603217495,88,28.37,129.48,73.4,12.75
72,Aktas,0,KZ,1603217495,63,49.78,72.96,26.6,8.95
73,Yar-Sale,100,RU,1603217495,98,66.83,70.83,25.0,2.98
74,Hualmay,31,PE,1603217495,65,-11.1,-77.61,69.15,8.72
75,Narsaq,75,GL,1603217196,93,60.92,-46.05,35.6,3.36
76,Mahibadhoo,100,MV,1603217458,79,3.78,72.97,82.85,11.36
77,Natchitoches,40,US,1603217496,69,31.77,-93.13,80.6,5.82
78,Busselton,64,AU,1603217496,61,-33.65,115.33,57.0,8.7
79,Wenzhou,36,CN,1603217496,71,28.0,120.67,64.98,4.94
80,Maryborough,39,AU,1603217496,89,-25.53,152.7,63.07,3.22
81,Mar del Plata,82,AR,1603217352,41,-38.0,-57.56,59.0,13.87
82,Upernavik,100,GL,1603217496,88,72.79,-56.15,33.03,8.34
83,Samarai,63,PG,1603217496,85,-10.62,150.67,78.62,8.46
84,Tuatapere,38,NZ,1603217496,92,-46.13,167.68,41.0,1.99
85,Saint Paul Harbor,1,US,1603217496,56,57.79,-152.41,42.8,11.41
86,Lavrentiya,65,RU,1603217496,91,65.58,-171.0,36.41,11.7
87,Katsuura,20,JP,1603217347,77,35.13,140.3,60.8,12.75
88,Bourail,0,NC,1603217497,82,-21.57,165.48,68.67,2.91
89,Atar,4,MR,1603217497,17,20.52,-13.05,95.4,10.56
90,Seoul,75,KR,1603217254,93,37.57,126.98,50.0,2.17
91,Longyearbyen,47,SJ,1603217497,73,78.22,15.64,23.0,5.82
92,Pangody,99,RU,1603217497,99,65.85,74.49,26.08,6.13
93,Port Lincoln,83,AU,1603217497,86,-34.73,135.87,57.0,9.69
94,Padang,66,ID,1603217497,75,-0.95,100.35,79.48,4.97
95,San Quintín,72,MX,1603217558,67,30.48,-115.95,73.27,10.8
96,Kruisfontein,0,ZA,1603217558,81,-34.0,24.73,57.99,1.01
97,Tasiilaq,75,GL,1603217558,93,65.61,-37.64,32.0,19.46
98,Mirny,90,RU,1603217558,85,62.54,113.96,19.4,6.71
99,Dikson,98,RU,1603217558,96,73.51,80.55,21.61,6.4
100,Ahipara,99,NZ,1603217302,82,-35.17,173.17,56.71,4.74
101,Mae Hong Son,69,TH,1603217558,83,19.3,97.97,69.01,2.24
102,Saskylakh,85,RU,1603217558,97,71.92,114.08,20.86,7.0
103,Hobart,90,AU,1603217491,81,-42.88,147.33,53.6,4.7
104,Port Elizabeth,20,ZA,1603217559,77,-33.92,25.57,59.0,5.82
105,Kulhudhuffushi,50,MV,1603217559,80,6.62,73.07,82.11,10.96
106,Ambanja,9,MG,1603217560,78,-13.68,48.45,77.25,1.81
107,Arraial do Cabo,9,BR,1603217397,69,-22.97,-42.03,78.8,21.92
108,Portland,99,AU,1603217560,84,-38.33,141.6,48.65,3.13
109,East London,20,ZA,1603217560,77,-33.02,27.91,60.8,13.87
110,Rocha,100,UY,1603217366,95,-34.48,-54.33,48.49,13.4
111,Ribas do Rio Pardo,45,BR,1603217560,68,-20.44,-53.76,80.42,12.66
112,Saint-Denis,35,RE,1603217560,73,-20.87,55.47,73.4,14.99
113,West Wendover,1,US,1603217445,25,40.74,-114.07,62.6,17.22
114,Kerrobert,90,CA,1603217560,73,51.92,-109.13,26.6,17.22
115,Kot Diji,0,PK,1603217561,61,27.34,68.71,77.0,6.02
116,Norman Wells,75,CA,1603217561,85,65.28,-126.83,19.4,10.29
117,Manokwari,24,ID,1603217561,72,-0.87,134.08,78.53,3.8
118,Khandyga,100,RU,1603217561,97,62.67,135.6,15.55,3.91
119,Half Moon Bay,5,US,1603217561,82,37.46,-122.43,73.99,3.33
120,Henties Bay,0,NA,1603217562,84,-22.12,14.28,59.0,6.64
121,São Filipe,81,CV,1603217560,54,14.9,-24.5,86.49,8.28
122,Kochi,75,IN,1603217308,94,9.94,76.26,78.8,4.5
123,Ormstown,100,CA,1603217562,97,45.13,-74.0,50.0,7.0
124,Black River,40,JM,1603217562,88,18.03,-77.85,87.01,4.7
125,Petropavlovsk-Kamchatskiy,17,RU,1603217562,86,53.05,158.65,26.6,11.18
126,Tomatlán,11,MX,1603217562,65,19.93,-105.25,88.65,5.12
127,Diu,0,IN,1603217562,81,20.71,70.98,81.95,8.84
128,Georgetown,74,SH,1603217562,80,-7.93,-14.42,75.76,14.72
129,Venice,75,US,1603217482,74,27.1,-82.45,86.0,13.87
130,Jamestown,67,SH,1603217563,96,-15.94,-5.72,61.56,22.82
131,Iqaluit,90,CA,1603217563,74,63.75,-68.51,30.2,6.93
132,Barrow,90,US,1603217402,86,71.29,-156.79,28.4,6.93
133,Regina,90,CA,1603217355,86,50.45,-104.62,28.99,11.41
134,Puerto Ayora,75,EC,1603217563,69,-0.74,-90.35,78.8,20.8
135,Tuktoyaktuk,90,CA,1603217564,92,69.45,-133.04,23.0,16.11
136,Tura,89,RU,1603217564,96,64.28,100.25,13.39,2.26
137,Zyryanka,95,RU,1603217564,96,65.75,150.85,10.06,2.64
138,Douglas,90,US,1603217564,86,41.3,-96.17,41.0,6.93
139,Araouane,0,ML,1603217565,11,18.9,-3.53,92.64,7.16
140,Kapaa,75,US,1603217558,88,22.08,-159.32,77.0,5.82
141,Vao,33,NC,1603217565,79,-22.67,167.48,72.81,18.03
142,Makakilo City,75,US,1603217565,78,21.35,-158.09,80.6,6.93
143,Sittwe,94,MM,1603217599,79,20.15,92.9,81.32,12.53
144,Poum,0,NC,1603217625,70,-20.23,164.02,74.12,5.21
145,Sitka,20,US,1603217625,93,57.05,-135.33,39.2,4.7
146,Celle,75,DE,1603217374,93,52.62,10.08,51.8,4.7
147,Laurinburg,75,US,1603217625,57,34.77,-79.46,80.6,4.7
148,Bathsheba,75,BB,1603217625,66,13.22,-59.52,87.8,12.75
149,Bengkulu,98,ID,1603217626,82,-3.8,102.27,76.71,3.96
150,Baharly,0,TM,1603217626,23,38.44,57.43,65.5,3.62
151,Olinda,75,BR,1603217626,62,-8.01,-34.86,84.2,12.75
152,Sur,0,OM,1603217364,58,22.57,59.53,74.59,2.89
153,Nanortalik,100,GL,1603217626,85,60.14,-45.24,37.94,4.34
154,São Luiz Gonzaga,1,BR,1603217573,31,-28.41,-54.96,92.7,9.31
155,Hīt,0,IQ,1603217626,25,33.64,42.83,78.82,8.86
156,Hailin,100,CN,1603217626,66,44.58,129.42,46.78,6.15
157,Aklavik,90,CA,1603217626,79,68.22,-135.01,23.0,16.11
158,Vung Tau,80,VN,1603217626,83,10.35,107.08,80.01,7.65
159,Amapá,15,BR,1603217589,29,1.0,-52.0,98.2,6.44
160,Puerto Madryn,20,AR,1603217627,31,-42.77,-65.04,61.07,8.1
161,Kenai,1,US,1603217627,85,60.55,-151.26,24.8,3.65
162,Altagracia de Orituco,100,VE,1603217627,65,9.86,-66.38,85.44,3.53
163,Gomel,70,BY,1603217623,93,52.43,30.98,37.4,11.18
164,Vila Velha,90,BR,1603217594,88,-20.33,-40.29,78.01,4.7
165,Pisco,40,PE,1603217366,77,-13.7,-76.22,66.2,11.41
166,Carnarvon,40,AU,1603217549,82,-24.87,113.63,68.0,16.11
167,Kolokani,1,ML,1603217627,23,13.57,-8.03,89.01,2.95
168,Kaitangata,98,NZ,1603217627,86,-46.28,169.85,48.0,2.15
169,Quelimane,0,MZ,1603217628,76,-17.88,36.89,78.53,10.8
170,Pontes e Lacerda,95,BR,1603217628,36,-15.23,-59.34,95.43,3.69
171,Road Town,40,VG,1603217628,70,18.42,-64.62,87.8,9.17
172,Mandurah,21,AU,1603217628,81,-32.55,115.7,60.01,7.85
173,Makkah al Mukarramah,0,SA,1603217628,35,21.43,39.83,76.32,1.45
174,Tilichiki,100,RU,1603217628,100,60.47,166.1,38.43,11.25
175,Saint-Paul,67,RE,1603217616,73,-21.01,55.27,73.4,14.99
176,Kudat,20,MY,1603217604,100,6.88,116.85,73.4,2.24
177,Egvekinot,100,RU,1603217348,100,66.32,-179.17,33.94,7.45
178,Aswān,0,EG,1603217628,16,24.09,32.91,86.77,8.77
179,Bundaberg,90,AU,1603217628,77,-24.85,152.35,68.0,5.82
180,Klaksvík,21,FO,1603217628,86,62.23,-6.59,37.4,2.24
181,Esperance,90,AU,1603217628,100,-33.87,121.9,59.0,11.41
182,Faanui,79,PF,1603217629,83,-16.48,-151.75,78.64,17.09
183,Sambava,77,MG,1603217629,80,-14.27,50.17,76.23,15.93
184,Cidreira,1,BR,1603217629,76,-30.18,-50.21,72.95,11.99
185,Shellbrook,75,CA,1603217629,68,53.22,-106.4,26.6,9.17
186,Bambous Virieux,20,MU,1603217629,73,-20.34,57.76,75.99,10.29
187,Willowmore,0,ZA,1603217629,39,-33.29,23.49,58.08,6.96
188,Guerrero Negro,0,MX,1603217629,59,27.98,-114.06,78.85,10.63
189,Lebu,0,CL,1603217629,63,-37.62,-73.65,53.91,20.07
190,Port Hardy,75,CA,1603217629,93,50.7,-127.42,50.0,3.36
191,Ribeira Grande,40,PT,1603217629,59,38.52,-28.7,66.2,5.82
192,Stellenbosch,0,ZA,1603217690,67,-33.93,18.87,59.0,13.87
193,Cayhagan,100,PH,1603217690,85,9.67,122.43,78.96,7.02
194,Nome,75,US,1603217690,84,64.5,-165.41,32.0,3.36
195,College,90,US,1603217574,85,64.86,-147.8,14.0,1.01
196,Cockburn Town,40,TC,1603217690,58,21.46,-71.14,86.0,8.05
197,Alamogordo,1,US,1603217406,10,32.9,-105.96,80.01,5.82
198,Cherskiy,67,RU,1603217690,96,68.75,161.3,19.06,5.44
199,Chipoka,5,MW,1603217690,44,-13.99,34.52,81.95,3.94
200,Fairbanks,90,US,1603217690,85,64.84,-147.72,14.0,1.12
201,Saint George,40,BM,1603217544,58,32.38,-64.68,82.4,20.8
202,Pierre,90,US,1603217690,75,44.37,-100.35,44.6,6.93
203,Yerbogachën,99,RU,1603217691,97,61.28,108.01,21.36,7.56
204,Hamilton,40,BM,1603217691,58,32.29,-64.78,82.4,20.8
205,Ostrovnoy,100,RU,1603217609,76,68.05,39.51,38.35,16.96
206,Saint-Philippe,38,RE,1603217691,78,-21.36,55.77,73.0,4.7
207,Eureka,1,US,1603217691,87,40.8,-124.16,60.01,7.83
208,Rio Grande,98,BR,1603217644,87,-32.03,-52.1,70.0,5.99
209,Kommunar,75,RU,1603217691,87,59.62,30.39,36.0,4.47
210,Ilulissat,75,GL,1603217691,56,69.22,-51.1,42.8,13.87
211,Constitucion,5,MX,1603217692,19,23.99,-104.67,75.99,4.16
212,Swan River,91,CA,1603217692,74,52.11,-101.27,31.53,1.57
213,Kapit,100,MY,1603217692,93,2.02,112.93,74.57,1.19
214,Nemuro,50,JP,1603217649,66,43.32,145.57,49.48,5.03
215,Naraura,0,IN,1603217692,21,28.2,78.38,73.98,3.09
216,Kirakira,100,SB,1603217692,81,-10.45,161.92,78.71,11.88
217,Severo-Kuril'sk,47,RU,1603217692,71,50.68,156.12,40.17,24.85
218,Dawei,89,MM,1603217692,88,14.08,98.2,74.88,4.5
219,Richards Bay,100,ZA,1603217692,75,-28.78,32.04,68.63,13.98
220,Provideniya,90,RU,1603217693,95,64.38,-173.3,39.2,11.1
221,Galesong,20,ID,1603217693,83,-5.32,119.37,75.2,3.36
222,Pacific Grove,75,US,1603217475,87,36.62,-121.92,60.8,3.36
223,Hecun,59,CN,1603217693,42,36.53,114.11,61.11,8.97
224,Kumluca,99,TR,1603217693,59,36.37,30.29,71.83,5.06
225,Mahébourg,20,MU,1603217693,73,-20.41,57.7,75.2,10.29
226,Galveston,40,US,1603217394,70,29.37,-94.97,84.2,8.05
227,Mayo,75,CA,1603217693,77,63.59,-135.9,6.8,3.36
228,Mount Gambier,90,AU,1603217693,100,-37.83,140.77,44.6,3.18
229,Thinadhoo,38,MV,1603217693,78,0.53,72.93,82.85,11.43
230,Vila do Maio,100,CV,1603217694,59,15.13,-23.22,89.6,13.87
231,Auki,98,SB,1603217694,83,-8.77,160.7,77.86,5.28
232,Kalach-na-Donu,10,RU,1603217694,57,48.69,43.53,39.2,4.47
233,Spassk-Dal'niy,21,RU,1603217694,70,44.6,132.82,46.87,8.46
234,Krasnosel'kup,93,RU,1603217694,98,65.7,82.47,22.78,8.68
235,Perth,55,AU,1603217754,87,-31.93,115.83,62.01,5.82
236,Mayor Pablo Lagerenza,68,PY,1603217755,30,-19.93,-60.77,99.77,6.91
237,Broome,87,AU,1603217695,74,-17.97,122.23,78.8,8.05
238,Yuancheng,53,CN,1603217755,48,36.65,107.79,45.21,7.4
239,Kropotkin,5,RU,1603217756,59,45.44,40.58,50.0,5.5
240,Motomachi,0,JP,1603217756,87,43.82,144.1,39.0,3.33
241,Saint-Augustin,99,CA,1603217756,77,51.23,-58.65,47.19,6.85
242,Wuwei,0,CN,1603217757,37,37.93,102.64,46.99,5.37
243,Taltal,17,CL,1603217757,52,-25.4,-70.48,66.72,4.94
244,Rāmshīr,0,IR,1603217757,43,30.89,49.41,78.8,2.35
245,Deputatsky,100,RU,1603217555,97,69.3,139.9,9.12,2.62
246,Inta,100,RU,1603217758,97,66.03,60.17,22.19,3.38
247,Ružomberok,69,SK,1603217758,87,49.07,19.31,44.6,2.24
248,Astoria,90,US,1603217647,87,46.19,-123.83,54.0,3.76
249,Yumen,0,CN,1603217655,44,40.28,97.2,46.58,9.55
250,Eyl,0,SO,1603217758,73,7.98,49.82,81.36,9.24
251,Barra de Tecoanapa,67,MX,1603217759,66,16.52,-98.75,86.14,6.35
252,Dhenkānāl,75,IN,1603217759,94,20.67,85.6,80.6,1.12
253,Vila Franca do Campo,40,PT,1603217759,63,37.72,-25.43,62.6,16.11
254,Mossamedes,68,AO,1603217759,81,-15.2,12.15,69.48,5.37
255,San Patricio,20,MX,1603217760,63,19.22,-104.7,93.2,9.17
256,Burnie,100,AU,1603217760,78,-41.07,145.92,48.0,4.0
257,Coquimbo,0,CL,1603217674,67,-29.95,-71.34,62.6,18.34
258,Berlevåg,75,NO,1603217761,100,70.86,29.09,30.2,1.12
259,Middelburg,100,NL,1603217761,82,51.5,3.61,59.0,25.28
260,Iquitos,75,PE,1603217669,62,-3.75,-73.25,89.6,4.7
261,Cerritos,5,MX,1603217761,35,22.43,-100.28,73.4,4.7
262,Al Bardīyah,32,LY,1603217762,75,31.76,25.09,72.41,8.7
263,Srandakan,98,ID,1603217763,83,-7.94,110.25,79.12,4.0
264,Nizwá,0,OM,1603217763,21,22.93,57.53,72.7,2.66
265,Unity,92,CA,1603217764,89,52.45,-109.17,25.54,9.1
266,Hobyo,10,SO,1603217660,81,5.35,48.53,80.4,17.38
267,Cockburn Town,70,BS,1603217764,79,24.03,-74.52,81.23,18.77
268,Safford,1,US,1603217765,11,32.83,-109.71,80.6,0.56
269,Port Keats,59,AU,1603217765,80,-14.25,129.55,82.22,5.75
270,Shibetsu,12,JP,1603217765,76,43.66,145.13,42.69,3.36
271,Verāval,36,IN,1603217766,82,20.9,70.37,83.07,10.13
272,Nishihara,75,JP,1603217766,74,26.18,127.76,80.6,13.87
273,Tres Arroyos,77,AR,1603217767,29,-38.37,-60.28,66.65,7.11
274,Maniitsoq,100,GL,1603217767,93,65.42,-52.9,36.77,17.63
275,Camapuã,91,BR,1603217530,48,-19.53,-54.04,87.64,16.35
276,Bandarbeyla,0,SO,1603217683,74,9.49,50.81,79.84,3.87
277,Leshukonskoye,91,RU,1603217767,98,64.9,45.76,25.25,6.17
278,Caravelas,99,BR,1603217767,71,-17.71,-39.25,79.43,8.99
279,Zaragoza,72,MX,1603217768,63,28.48,-100.92,84.99,3.0
280,Artsyz,0,UA,1603217768,49,45.99,29.42,52.0,2.39
281,Boueni,0,YT,1603217768,78,-12.9,45.08,78.8,5.82
282,Nyurba,45,RU,1603217768,96,63.28,118.33,15.64,4.47
283,Port Macquarie,1,AU,1603217569,99,-31.43,152.92,54.0,4.05
284,Touros,40,BR,1603217625,58,-5.2,-35.46,84.2,16.11
285,Malé,75,MV,1603217829,83,4.17,73.51,82.4,6.93
286,Lüderitz,0,NA,1603217588,35,-26.65,15.16,71.22,31.47
287,Ossora,100,RU,1603217696,94,59.24,163.07,35.67,9.37
288,Juneau,90,US,1603217829,93,58.3,-134.42,37.99,3.36
289,Okhotsk,99,RU,1603217829,81,59.38,143.3,24.82,11.99
290,Yeniseysk,100,RU,1603217829,95,58.45,92.17,36.19,8.41
291,Goldsboro,20,US,1603217830,69,35.38,-77.99,79.0,5.03
292,Mocuba,45,MZ,1603217830,64,-16.84,36.99,80.02,5.73
293,Torbay,75,CA,1603217830,63,47.67,-52.73,61.0,19.46
294,Labuhan,76,ID,1603217830,79,-6.88,112.21,81.34,4.0
295,Grindavik,75,IS,1603217830,72,63.84,-22.43,37.4,3.36
296,Sakaiminato,20,JP,1603217831,100,35.55,133.23,51.8,5.82
297,Lincoln,85,NZ,1603217831,93,-43.65,172.48,52.0,5.82
298,Adelanto,0,US,1603217831,15,34.58,-117.41,81.0,1.99
299,Cap Malheureux,0,MU,1603217831,70,-19.98,57.61,75.0,8.01
300,Salalah,14,OM,1603217831,54,17.02,54.09,82.4,5.82
301,Fortuna,1,US,1603217832,87,40.6,-124.16,61.0,8.05
302,Eyrarbakki,75,IS,1603217832,74,63.86,-21.15,37.4,4.7
303,Batagay-Alyta,90,RU,1603217832,90,67.8,130.41,9.88,1.95
304,Porto Novo,19,CV,1603217832,52,17.02,-25.06,89.6,20.8
305,Chik,75,RU,1603217832,75,54.99,82.43,42.8,6.71
306,Saldanha,0,ZA,1603217552,59,-33.01,17.94,60.8,18.34
307,Benguela,58,AO,1603217832,79,-12.58,13.41,74.84,6.17
308,Obo,100,CF,1603217833,94,5.4,26.49,71.74,2.19
309,Jijiga,0,ET,1603217833,42,9.35,42.8,66.36,14.67
310,Sungurlu,7,TR,1603217833,70,40.17,34.37,54.82,8.48
311,Yulara,0,AU,1603217833,60,-25.24,130.99,69.8,8.05
312,Sassandra,74,CI,1603217833,82,4.95,-6.08,77.88,7.76
313,Dalbandin,0,PK,1603217834,28,28.89,64.41,57.76,5.64
314,Vardø,40,NO,1603217834,74,70.37,31.11,37.4,8.05
315,Isangel,75,VU,1603217779,94,-19.55,169.27,69.8,10.4
316,Aleksandrovsk-Sakhalinskiy,0,RU,1603217834,78,50.9,142.16,36.28,10.22
317,Dudinka,75,RU,1603217645,84,69.41,86.18,8.6,4.47
318,Pemangkat,94,ID,1603217569,85,1.17,108.97,79.07,4.16
319,Bayanday,58,RU,1603217834,84,53.07,105.51,24.4,2.62
320,Kargasok,99,RU,1603217834,94,59.06,80.86,36.36,7.83
321,Kensington,95,CA,1603217835,92,46.43,-63.65,63.0,5.99
322,Shingū,24,JP,1603217835,75,33.73,135.98,59.47,7.2
323,Doka,9,SD,1603217835,36,13.52,35.77,81.23,1.39
324,Omsukchan,100,RU,1603217835,94,62.53,155.8,15.66,2.06
325,Rūdbār,0,AF,1603217835,27,30.15,62.6,60.28,5.32
326,Yeppoon,90,AU,1603217836,73,-23.13,150.73,73.4,5.82
327,Khilok,0,RU,1603217836,89,51.37,110.47,20.16,8.48
328,Ponta Delgada,40,PT,1603217697,63,37.73,-25.67,62.6,16.11
329,Srīvardhan,99,IN,1603217896,87,18.03,73.02,78.89,2.1
330,Chiang Rai,75,TH,1603217896,100,19.92,99.92,69.8,1.12
331,Geraldton,90,AU,1603217897,77,-28.77,114.6,64.4,13.87
332,Zunyi,100,CN,1603217897,84,27.69,106.91,50.36,2.86
333,Ntungamo,99,UG,1603217897,89,-0.88,29.65,66.65,2.59
334,Dalvik,76,IS,1603217897,80,65.97,-18.53,30.2,2.24
335,Stornoway,75,GB,1603217897,93,58.21,-6.39,50.0,28.86
336,Gazojak,0,TM,1603217885,27,41.19,61.4,60.08,8.08
337,Balkhash,0,KZ,1603217897,41,46.84,74.98,50.41,10.65
338,Mercedes,100,AR,1603217898,65,-34.65,-59.43,63.0,4.0
339,Fort Morgan,1,US,1603217898,29,40.25,-103.8,62.6,16.11
340,Nuuk,75,GL,1603217898,86,64.18,-51.72,37.4,13.87
341,Chabahar,0,IR,1603217898,69,25.29,60.64,75.2,9.17
342,Jalu,0,LY,1603217898,47,29.03,21.55,76.6,8.81
343,Kavaratti,97,IN,1603217899,74,10.57,72.64,81.14,9.42
344,Lufilufi,90,WS,1603217899,100,-13.87,-171.6,77.0,3.36
345,Rosarito,40,MX,1603217899,68,32.33,-117.03,71.6,8.05
346,Santa Cruz,0,CL,1603217686,38,-34.63,-71.37,73.4,10.29
347,Cartaya,100,ES,1603217899,84,37.28,-7.15,66.99,17.0
348,Flin Flon,90,CA,1603217692,54,54.77,-101.86,28.4,2.24
349,Killarney,75,CA,1603217899,100,49.18,-99.66,28.4,16.11
350,Teruel,100,ES,1603217899,67,40.67,-0.67,62.6,16.11
351,Marsh Harbour,86,BS,1603217899,75,26.54,-77.06,81.81,21.7
352,Bairiki Village,40,KI,1603217899,83,1.33,172.98,80.6,12.75
353,Camrose,7,CA,1603217662,74,53.02,-112.84,24.01,4.0
354,Sioux Lookout,40,CA,1603217900,50,50.1,-91.92,33.8,10.29
355,Haifa,40,IL,1603217900,74,32.82,34.99,80.6,14.99
356,Aboso,96,GH,1603217900,92,5.36,-1.95,75.87,5.48
357,Srednekolymsk,98,RU,1603217900,97,67.45,153.68,17.4,4.12
358,Motygino,93,RU,1603217900,98,58.18,94.76,32.22,5.79
359,Tiksi,100,RU,1603217900,93,71.69,128.87,11.5,15.35
360,Tessalit,0,ML,1603217900,11,20.2,1.01,91.58,8.32
361,Pryluky,88,UA,1603217901,79,50.59,32.39,42.6,6.2
362,Sonneberg,99,DE,1603217901,79,50.35,11.17,48.99,3.71
363,San Carlos,100,MX,1603217759,76,17.55,-91.15,83.34,8.28
364,Nizhniy Odes,100,RU,1603217901,99,63.64,54.86,28.98,3.96
365,Port-Gentil,75,GA,1603217648,94,-0.72,8.78,78.8,13.87
366,Takoradze,60,GH,1603217801,86,4.88,-1.76,78.3,10.51
367,Tadine,0,NC,1603217901,84,-21.55,167.88,72.1,11.12
368,Cabo San Lucas,5,MX,1603217899,52,22.89,-109.91,95.0,6.93
369,Laguna,0,BR,1603217676,71,-28.48,-48.78,75.07,12.66
370,Turukhansk,99,RU,1603217901,94,65.82,87.98,16.83,7.18
371,Garoowe,0,SO,1603217901,30,8.41,48.48,85.86,5.93
372,Manosque,90,FR,1603217902,74,43.83,5.79,57.0,4.0
373,Alice Springs,40,AU,1603217733,82,-23.7,133.88,68.0,5.82
374,Aksay,3,KZ,1603217902,64,51.17,52.99,42.48,8.23
375,Sar-e Pul,0,AF,1603217902,68,35.83,66.17,39.69,2.15
376,Sinnamary,50,GF,1603217613,60,5.38,-52.95,86.88,14.38
377,Granadilla de Abona,40,ES,1603217962,61,28.12,-16.58,80.6,11.41
378,Kulachi,0,PK,1603217962,21,31.93,70.46,70.81,1.39
379,Carlsbad,20,US,1603217806,73,33.16,-117.35,75.0,5.5
380,Shahrud,0,IR,1603217962,37,36.42,54.98,56.41,6.11
381,Kavieng,80,PG,1603217962,79,-2.57,150.8,81.48,11.12
382,Emerald,75,AU,1603217891,78,-23.53,148.17,71.6,6.93
383,Lesnoye,76,RU,1603217963,96,58.28,35.52,31.17,7.16
384,Vancouver,75,CA,1603217899,93,49.25,-123.12,53.01,5.82
385,The Valley,20,AI,1603217963,70,18.22,-63.06,87.8,9.17
386,Beruwala,3,LK,1603217963,86,6.48,79.98,79.52,8.34
387,Bilma,0,NE,1603217688,13,18.69,12.92,85.26,4.45
388,Campbell,90,US,1603217963,93,38.95,-84.38,57.0,4.7
389,Los Lotes,40,PA,1603217963,78,9.13,-79.3,84.0,12.75
390,Puerto Madero,40,MX,1603217963,79,14.72,-92.42,86.0,5.73
391,Diego de Almagro,0,CL,1603217963,13,-26.37,-70.05,87.64,16.67
392,Shaoyang,95,CN,1603217963,82,27.23,111.45,54.12,3.6
393,Jepara,98,ID,1603217964,90,-5.17,105.7,76.57,3.83
394,Lugoba,22,TZ,1603217964,76,-6.45,38.33,74.57,5.61
395,Arona,40,ES,1603217964,61,28.1,-16.68,80.6,11.41
396,Baruun-Urt,84,MN,1603217964,90,46.68,113.28,26.02,15.95
397,Palu,100,ID,1603217964,80,-0.89,119.87,76.64,2.64
398,Ajdabiya,0,LY,1603217964,60,30.76,20.23,72.05,15.61
399,Punta Cardon,100,VE,1603217964,68,11.66,-70.22,86.0,8.9
400,Poyarkovo,100,RU,1603217964,69,49.6,128.68,47.97,10.42
401,Joshīmath,8,IN,1603217964,45,30.57,79.57,51.94,2.55
402,Zapolyarnyy,75,RU,1603217964,98,69.42,30.81,32.0,3.36
403,Hvolsvollur,17,IS,1603217964,74,63.75,-20.22,37.4,8.05
404,Husavik,63,IS,1603217964,80,66.04,-17.34,30.2,2.24
405,Hiratachō,20,JP,1603217965,100,35.43,132.82,51.8,3.36
406,Kloulklubed,90,PW,1603217965,94,7.04,134.26,75.2,7.96
407,Sanford,90,US,1603217965,74,28.8,-81.27,84.99,6.93
408,San Fernando,5,US,1603217775,72,34.28,-118.44,73.0,3.18
409,Bukama,66,CD,1603217965,57,-9.2,25.85,79.52,3.38
410,Nouakchott,3,MR,1603217965,11,18.09,-15.98,104.0,17.22
411,Taoudenni,0,ML,1603217763,15,22.68,-3.98,88.02,9.15
412,Antofagasta,20,CL,1603217745,67,-23.65,-70.4,66.99,10.29
413,Chimoio,0,MZ,1603217965,65,-19.12,33.48,74.28,8.28
414,Mahon,20,ES,1603217965,88,39.89,4.27,68.0,14.99
415,Mokrousovo,100,RU,1603217965,66,55.81,66.77,46.53,8.34
416,Jieshi,96,CN,1603217966,77,22.81,115.83,69.49,11.36
417,Tynda,100,RU,1603217966,98,55.17,124.72,28.38,4.63
418,Çanakkale Province,75,TR,1603217966,77,40.08,26.83,59.0,6.93
419,Hay River,75,CA,1603217966,92,60.82,-115.8,21.2,10.29
420,Coyhaique,20,CL,1603217966,43,-45.58,-72.07,55.4,10.29
421,Liverpool,100,CA,1603217966,74,44.03,-64.72,68.0,4.0
422,Acarí,0,PE,1603217966,37,-15.43,-74.62,77.95,11.39
423,Kheda,40,IN,1603217966,70,22.75,72.68,87.8,8.14
424,Manggar,86,ID,1603217966,79,-2.88,108.27,80.26,2.64
425,Acapulco de Juárez,20,MX,1603217877,74,16.86,-99.89,86.0,6.93
426,Huarmey,21,PE,1603217966,64,-10.07,-78.15,69.67,8.52
427,Langenthal,100,CH,1603217967,90,47.22,7.8,51.01,2.82
428,Flinders,17,AU,1603218027,87,-34.58,150.86,61.0,1.01
429,Nur-Sultan,4,KZ,1603217941,64,51.18,71.45,33.8,4.47
430,São Félix do Xingu,100,BR,1603218027,31,-6.64,-51.99,97.86,5.06
431,Florence,90,US,1603218027,61,34.05,-79.67,81.0,9.17
432,Grand-Santi,65,GF,1603218027,24,4.25,-54.38,100.35,4.63
433,Ancud,1,CL,1603218027,51,-41.87,-73.82,53.6,10.29
434,Tinos,20,GR,1603218027,72,37.54,25.16,66.2,17.22
435,Sisimiut,100,GL,1603218027,94,66.94,-53.67,35.71,13.53
436,Cap-aux-Meules,90,CA,1603218027,93,47.38,-61.86,57.2,17.22
437,Boa Vista,75,BR,1603217873,41,2.82,-60.67,95.0,6.93
438,Gornozavodsk,45,RU,1603218027,98,58.38,58.32,29.97,4.74
439,Kudahuvadhoo,99,MV,1603218028,79,2.67,72.89,82.54,13.13
440,Manadhoo,23,MV,1603218028,80,5.77,73.38,81.52,11.59
441,Suntar,84,RU,1603218028,96,62.14,117.63,19.06,4.27
442,Carutapera,99,BR,1603218028,57,-1.2,-46.02,87.6,12.5
443,Tonk,3,IN,1603218028,23,26.17,75.78,80.37,8.12
444,Luwuk,88,ID,1603218028,64,-0.95,122.79,76.75,5.21
445,Aginskoye,79,RU,1603218028,85,51.1,114.53,24.89,20.09
446,Vestmannaeyjar,14,IS,1603218028,74,63.44,-20.27,37.4,8.05
447,San Juan,0,AR,1603218028,17,-31.54,-68.54,80.46,12.77
448,Palora,75,EC,1603218028,78,-1.7,-77.93,75.2,2.24
449,Fort Nelson,90,CA,1603218028,78,58.81,-122.7,15.8,3.47
450,San Cristobal,75,EC,1603218029,88,-0.9,-89.62,73.4,14.99
451,Lagos,40,NG,1603217734,83,6.58,3.75,82.4,10.29
452,Krasnokamensk,72,RU,1603218029,93,50.1,118.04,32.85,10.67
453,Ardrishaig,75,GB,1603218029,93,56.02,-5.45,55.4,20.8
454,Chīpurupalle,87,IN,1603218029,87,18.3,83.57,77.88,3.44
455,Katangli,0,RU,1603218029,91,51.71,143.23,29.19,8.79
456,Caconda,12,AO,1603218029,23,-13.73,15.07,75.9,2.68
457,Chunskiy,100,RU,1603218029,98,56.08,99.63,31.78,6.53
458,Sakaraha,0,MG,1603218029,33,-22.9,44.53,76.26,4.18
459,Rassvet,0,RU,1603218030,53,46.83,40.75,48.0,7.61
460,Boca do Acre,86,BR,1603218030,52,-8.75,-67.4,89.42,2.39
461,Xapuri,75,BR,1603218010,66,-10.65,-68.5,89.6,2.24
462,Ijuí,31,BR,1603218030,39,-28.39,-53.91,88.48,7.87
463,Gwadar,0,PK,1603218030,39,25.12,62.33,78.31,8.66
464,Harper,94,LR,1603218030,80,4.38,-7.72,78.71,7.49
465,Pochutla,40,MX,1603218030,59,15.74,-96.47,90.0,11.41
466,Niamey,20,NE,1603218030,26,13.51,2.11,95.0,5.82
467,Bilibino,99,RU,1603218030,95,68.05,166.44,20.86,1.72
468,Waingapu,75,ID,1603218031,76,-9.66,120.26,79.39,3.49
469,Sinegor'ye,5,RU,1603218031,89,62.08,150.48,12.56,2.06
470,Shenzhen,87,CN,1603217822,71,22.55,114.07,73.0,1.99
471,Lichinga,71,MZ,1603218031,53,-13.31,35.24,69.94,6.33
472,Takāb,0,IR,1603218031,32,36.4,47.11,53.46,3.06
473,Oranjestad,40,AW,1603217883,88,12.52,-70.03,75.2,19.46
474,Mehamn,98,NO,1603218031,81,71.04,27.85,35.87,7.56
475,Cao Bang,90,VN,1603218031,66,22.67,106.25,63.37,4.76
476,Arraias,98,BR,1603218091,29,-12.93,-46.94,93.96,3.56
477,Chase,70,CA,1603218092,98,50.82,-119.69,43.0,1.83
478,Victoria,20,US,1603217803,62,28.78,-96.95,88.0,10.29
479,Kaeo,55,NZ,1603218092,93,-35.1,173.78,53.01,1.36
480,La Libertad,20,SV,1603218092,62,13.49,-89.32,87.8,3.36
481,Elko,0,US,1603218092,24,41.0,-115.5,66.99,8.99
482,Elliot Lake,1,CA,1603218092,48,46.38,-82.63,44.6,8.05
483,Hofn,20,IS,1603218093,72,64.25,-15.21,37.51,4.23
484,Alta Floresta,98,BR,1603218093,30,-9.88,-56.09,99.91,0.76
485,Borogontsy,100,RU,1603218093,96,62.67,131.17,12.6,4.54
486,Ponta do Sol,20,PT,1603218093,53,32.67,-17.1,71.6,2.24
487,Westport,1,NZ,1603218094,81,-41.75,171.6,45.63,4.16
488,Dailly,40,GB,1603218094,76,55.28,-4.72,57.2,12.75
489,Alihe,85,CN,1603218094,84,50.57,123.72,35.83,1.77
490,Kano,88,NG,1603218094,69,12.0,8.52,82.4,3.36
491,Moose Factory,40,CA,1603218094,56,51.26,-80.61,41.0,8.05
492,Pevek,79,RU,1603218094,94,69.7,170.31,30.78,20.56
493,Durango,1,US,1603217976,17,37.28,-107.88,68.0,3.36
494,Cayenne,66,GF,1603217941,55,4.93,-52.33,91.4,13.87
495,Oranjemund,0,NA,1603218095,76,-28.55,16.43,59.95,23.15
496,Itigi,75,TZ,1603218095,56,-5.7,34.48,71.92,4.99
497,Angoram,97,PG,1603218095,93,-4.06,144.07,73.06,1.16
498,Hasaki,20,JP,1603218095,87,35.73,140.83,54.0,8.05
499,San Pedro de Macorís,20,DO,1603218095,62,18.46,-69.3,89.6,6.93
500,Camacha,40,PT,1603218096,64,33.08,-16.33,69.8,21.92
501,Ballina,40,AU,1603218096,93,-28.87,153.57,55.4,4.79
502,Marovoay,20,MG,1603218096,74,-16.1,46.63,78.8,3.36
503,Zhaotong,100,CN,1603218096,90,27.32,103.72,43.27,6.38
504,Verkhniy Ufaley,74,RU,1603218096,88,56.06,60.23,34.61,6.33
505,Krasnogvardeyskiy,33,RU,1603218097,85,57.38,62.32,37.08,7.05
506,Zhigansk,100,RU,1603218097,96,66.77,123.37,14.67,7.99
507,Ballina,90,IE,1603218097,100,54.12,-9.17,55.0,11.41
508,Moussoro,0,TD,1603218097,10,13.64,16.49,94.86,10.29
509,Ilek,6,RU,1603218097,67,51.53,53.38,41.45,7.4
510,Karasjok,75,NO,1603218097,95,69.47,25.51,32.0,8.05
511,Sembakung,92,ID,1603218097,95,3.82,117.25,74.25,1.52
512,Muli,98,MV,1603218097,80,2.92,73.57,82.0,12.48
513,Biloela,56,AU,1603218097,90,-24.42,150.5,64.83,2.93
514,Khuzhir,22,RU,1603218097,85,53.19,107.34,29.7,9.15
515,Jardim,30,BR,1603217998,37,-21.48,-56.14,96.78,1.16
516,Novaya Malykla,85,RU,1603218098,72,54.2,49.95,39.87,4.41
517,Mato Verde,83,BR,1603218098,37,-15.4,-42.87,88.25,3.47
518,Arrondissement de Dinan,90,FR,1603218098,82,48.42,-2.25,62.6,10.29
519,Davenport,90,US,1603218098,70,41.52,-90.58,48.2,12.75
520,Ryōtsu-minato,0,JP,1603218098,59,38.08,138.43,60.04,9.46
521,Talakan,100,RU,1603218099,78,50.32,130.37,39.25,8.72
522,Bristol,90,US,1603218084,82,41.83,-71.17,66.2,4.7
523,Namatanai,74,PG,1603218099,78,-3.67,152.43,78.89,1.86
524,Paamiut,100,GL,1603217843,91,61.99,-49.67,36.91,18.45
